name,category,description,rating,harga_min,harga_max,image_url,latitude,longitude
Iga Galabag,kuliner,"Tidak seperti restoran iga pada umumnya yang menyajikan porsi standar, Iga Galabag memiliki keunikan tersendiri dengan menawarkan iga bakar berukuran jumbo yang mampu disantap hingga lima orang sekaligus dengan cita rasa yang tak tertandingi.",4.5,50000,100000,https://lh3.googleusercontent.com/gps-cs-s/APNQkAFExU_dJUIT9gbPXYPV1hU3dVXh_prJuQ2wM1UUkgl8doWY21Yc5ND5TfRdAzHVnmT-aI2TYN79C0T5LZ8PEBtggD4ukTl-SsvV_sXO3lBExQm24R8lcu4GMjhWhmN4BfUuD5QkJK-z5hWC=s1360-w1360-h1020-rw,-6.9018527,107.6249357
Raja Rasa,kuliner,"Raja Rasa adalah sebuah restoran yang terletak di Bandung, Indonesia, terkenal dengan berbagai hidangan Sunda dan suasana nyaman untuk berkumpul.",4.5,50000,150000,https://lh3.googleusercontent.com/gps-cs-s/APNQkAG60bdCFzwYIxRKnmJJ2eYW5_BWXatxPTc8ak0HwFleSTiYJNHs-I8SN54SadNU_Pbdm_nQSnd6FgE9s4_jKbgR-hJUGYB_VinXw2FTQA-pB8QfsVIENVJwUebbjflXc1-FLm38VH3JPHlZ=s1360-w1360-h1020-rw,-6.8798293,107.5839423
Tahu Priangan,kuliner,Tahu Priangan adalah kuliner khas Bandung yang terkenal dengan inovasi topping dan variasi menu yang menggugah selera.,4.3,25000,50000,https://lh3.googleusercontent.com/gps-cs-s/APNQkAESZtX4U9pn0kFa1b7wIe6SYlZ0coepoGbYOBZQVTfTjmNWV-AMcESGi35_RspgI0O0WIoMWR2PIc160g941GBNC-Xm3pvoXmFz45LuDfzdnFMAzpHttle042Vgkbj3lBPRKPovWua0mJMU=w160-h160-n-k-no-nu,-6.9161563,107.5942657
Yabe Izakaya,kuliner,Yabe Izakaya Bandung adalah restoran yang cukup populer. Restoran ini terkenal menawarkan suasana Jepang autentik dengan makanan lezat khas negara tersebut.,4.8,75000,100000,https://lh3.googleusercontent.com/gps-cs-s/APNQkAFupytkAXU77IyGYqaPZK3rTzZO2QipvQ0TOYjPKtNwoLOjkKFDkW4DS4Whpd4fbKJ2BYQptVxxfoWBJwziYxsLYy6ZlbDp2GWgwD0aCvh_8UFP0BmkrFRA4p679-F7Ir7rjXVlTJtvMxs=w160-h267-n-k-no-nu,-6.9147801,107.591976
Liwet Asep Stroberi,kuliner,"Nikmati cita rasa liwet Sunda Asli di Liwet Asep Stroberi, rekomendasi restoran keluarga terbaik dan tempat makan Sunda enak di Jawa Barat yang wajib Anda coba.",4.3,50000,100000,https://lh3.googleusercontent.com/gps-cs-s/APNQkAGsI9ARLNrEr4f-gOzIxnw-bCECYYKy78PkV-gSZBQkYf9CZQJQUfvtMHsjhtHIWk7MpEbj8YFqyjVrw8xs1DRfDknQfHvjcJ0RehyKkaupoMPfbN6ZdLZU6LbWTgq3qxa1_urC=s1360-w1360-h1020-rw,-6.8178771,107.6119519
Bakmi Rajim Rica Rica,kuliner,"Bakmi Rajim Rica-Rica adalah salah satu tempat makan bakmi yang terkenal di Bandung, menawarkan cita rasa yang lezat dan beragam pilihan menu.",4.1,25000,50000,https://lh3.googleusercontent.com/gps-cs-s/APNQkAEIsfPD5t0bPx_31U-BnrQ0KcEU6n-8pVIj9DOs0pUBmBJKl3m6jrs_rzPo2WkVVNs6t0BCNeBZ1c_rHr8__IMBa3K9G-3kJUonwuk7CMtYgVgOG0hM-Y2JJcw9ftTGoOBE2p26=s1360-w1360-h1020-rw,-6.9121885,107.5978822
Kilogram Cafe,kuliner,"Kilogram Pop-Up Cafe merupakan cafe cantik yang berada di kawasan Cikole, Lembang, Jawa Barat. Adapun tempat ini terkenal dengan sajian makanan dan minuman nikmat di tengah-tengah alam indah.",4.0,125000,150000,https://lh3.googleusercontent.com/gps-cs-s/APNQkAFe-qg9J3RLxY8-IKLMaMlGWoUNsKh5XB04Dz2IiLhR9h0tnfnXCjxvZl-NvpuXCqSNFJ1kLrIROOnxTNXTbqFaAB3AVf0GbA71UFMwGT0oAsAJ1l39sJ6kL5Pp9NJBT-2SSJOw=s1360-w1360-h1020-rw,-6.7751944,107.6236111
Lazy Jennie,kuliner,"Kalau lagi cari tempat makan unik di Bandung, yang nggak cuma enak tapi juga punya vibe beda dari yang lain, jawabannya ada di Lazy Jennie.",4.8,50000,75000,https://lh3.googleusercontent.com/p/AF1QipMn-vdfW7Xo0X96bvMRoyMg7zAurngTX7j4kRZK=s1360-w1360-h1020-rw,-6.9107866,107.6276239
BMB Canteen,kuliner,"BMB Canteen menyuguhkan beragam pilihan  makanan khas Western mulai dari hidangan berat, camilan, hingga minuman kopi dan non-kopi.",4.4,75000,100000,https://lh3.googleusercontent.com/gps-cs-s/APNQkAGwEqyqU6_pX_UG2mkFLGLqUKh-kxp6FqCMNEo3GCqUcAqPkk41HJwy__kWrQDsGW70OAGsv9jfvSZaqhzv7yCm_zah00djQk5vZn6_ulaZzHk4gwZFgEM7YCHLqk74m4AkML0P6dL_SbFF=w289-h312-n-k-no,-6.8811203,107.5960891
TJI LAKI 9,kuliner,"Tji Laki 9 adalah toko bolu bakar legendaris Bandung di Jalan Cilaki dengan cita rasa tradisional, nuansa heritage, dan menu khas autentik.",4.5,25000,150000,https://lh3.googleusercontent.com/gps-cs-s/APNQkAE-296-gP5f8e3vRZCyYUqGXmSUyjK4_0Wd8vwhGf2h03RbpXpra8EXVfHEIhdry_UonekE7oviwrLOPWsS6rem85P8tgoKMT-C4KzDYK6yjBHvnMpkMLnm_329jMaI-ZxoMUpfic6203fb=w289-h312-n-k-no,-6.9068959,107.6286847
Nasi Pedas Mertua,kuliner,Nasi Pedes Mertua dikenal dengan sajian nasi hangat yang dipadukan dengan berbagai pilihan lauk dan sambal pedas yang jadi ciri khasnya.,4.1,25000,50000,https://lh3.googleusercontent.com/gps-cs-s/APNQkAH90FPTRQa81ICjuVY7LCzof28B587bRyaEFrHIhm8uWMyceUA4eAw4SsOdksJ-7H7OHxG4OnA1QRaRlGo0RtZOqec7FeVMgEm5sbtZiWkbC493WD2wB2AunddYoKNUwPVz4mEdOvbDA1Mj=w289-h312-n-k-no,-6.9070012,107.6198199
The Deli Bakes (Pudak),kuliner,"The Deli Bakes, sebuah cafe dessert dengan konsep unik, menu beragam, dan suasana estetik yang cocok untuk bersantai.",4.6,50000,100000,https://lh3.googleusercontent.com/gps-cs-s/APNQkAGmEqSVY90brpd7rR0wAgFVJLFz2-iKIJ2WvYawBp75LtWm1MmTqymN-70qZypxLe70jXvXRir763RCX6w1MbMj6iNrOtMERGEBvzdcnoUA-YumSE6SPQJOHlbInBiNyeH7N9IQdp-Oc5ST=w289-h312-n-k-no,-6.9139289,107.6285151
The Deli Bakes (Eyckman),kuliner,"The Deli Bakes, sebuah cafe dessert dengan konsep unik, menu beragam, dan suasana estetik yang cocok untuk bersantai.",4.6,50000,100000,https://lh3.googleusercontent.com/gps-cs-s/APNQkAElfDLUEDD2hxZLSTgaYc0EpaakJ68MHE3YUFxx1gwx3eBxfe4q5frIU0WH18W4x36Y94Ew8-tssMJ4VyRToDWzy_d6Cl7w8x1ALcXGoiT9qlFr1EtunbjrRzhRdSx3uHBnAiin=w289-h312-n-k-no,-6.8960412,107.6005018
Ayam Bakar Taliwang Bersaudara,kuliner,"Ayam Bakar Taliwang Bersaudara adalah restoran populer yang terletak di Jl. Citarum No. 29, Bandung. Dikenal dengan ayam taliwang pedasnya, restoran ini menawarkan hidangan ayam panggang tradisional Indonesia dengan rasa pedas.",4.4,50000,100000,https://lh3.googleusercontent.com/gps-cs-s/APNQkAFWsRlyzaem09oL1I9oA_XiFM0VArG2Jbs_8HVXeUd2JPOiMMKABY13Aak98cPOFA4DAcNukrRpGSQ0s9GItc1yGYo_qc8FZQNJd9HeYm0cFvZ8O7uzM63RVZLrcx0xl8sLEwAv=w289-h312-n-k-no,-6.9026179,107.6237415
BAGELICIOUS,kuliner,"Bagelicious Bandung tempat cozy dengan bagel fresh, dan vibes santai di tengah kota. Spot ideal buat brunch, nongkrong, atau kerja santai.",4.8,25000,75000,https://lh3.googleusercontent.com/gps-cs-s/APNQkAGbv7uGBMNwIKc4fzraCWY7FLxyO0w827kKaLt4JzAy8oSSWIO-W-CZacRWLFRNjalc9KzXF2a8NbMjs4XPx9inF6jcAB7s2wGmuPYqvFkPPpiG3KHYcsr9oSyuQRSSCsvimsY=w289-h312-n-k-no,-6.9058918,107.6179548
Kame Bakehouse,kuliner,Kame Bakehouse menyajikan dessert manis kekinian hingga main course yang layak dicoba.,4.5,50000,100000,https://lh3.googleusercontent.com/gps-cs-s/APNQkAHV7ugCF3VfyXd1Q1A2jW0PDPgLEJCUgU51QrutPsMJGRgk4G4m1OUHZYpQuAUhozlsXcj-0rLjEsHcpYVAvj68Ssiee_jdSU-KNaQucestFvMXx3RzsvQThHvGiWU5wXiImg=w289-h312-n-k-no,-6.8812426,107.5828904
From Jannice To You - Sourdough Doughnuts Bandung,kuliner,"From Janice to You Bandung adalah toko donat estetik dan cozy spot ngopi di Bandung yang cocok buat nongkrong, kerja, dan hunting konten.",4.8,10000,25000,https://lh3.googleusercontent.com/gps-cs-s/APNQkAF_8H0CFk7XdwltqRrc-4ICufXd6Md_hfrKkKoHBkEIO31dVOk5xF8xdrGE4cE1k5LPGXhBK1cPG-XzdQdIGi_ETdSc-JpOziwg1Ge6czBHUtFUiVN1xe8v-vw-QOz_bfNgBfGUEpNJXec=w289-h312-n-k-no,-6.868961,107.5933728
Set N Rise,kuliner,"Set N Rise adalah kedai yakitori dan bar eklektik yang disajikan di dalam ruang minimalis, abu-abu-&-kayu hangat.",4.3,50000,75000,https://lh3.googleusercontent.com/gps-cs-s/APNQkAFMzWdUWohf7XYd05Yj4ofkikFageibnAZBqjX9VGVpxnYZSbsBPoy0K_Jla-GJ3H5DDfJiAH2ljcomqaIFVo_EtIt2jHkJZmMxiKdSPU8yOHhuQIaI95qCwUYvS4CQZzSpPKc=w289-h312-n-k-no,-6.9049424,107.6238551
O-Maru Street Cafe,kuliner,"Maru Street Cafe, sebuah destinasi kuliner unik, ternyata bersembunyi di dalam sebuah supermarket. Konsep ini menawarkan pengalaman bersantap yang berbeda, menggabungkan cita rasa Jepang dengan sentuhan fusion yang inovatif.",4.5,50000,75000,https://lh3.googleusercontent.com/gps-cs-s/APNQkAFQaYLoiG_dMEbepRnwrKKzVPuZ5nzyydggwMjt4UHoTdffkKxAnqdswmyLcW3686QZL_WBkkB79AkLhDZ0MycfINUptw-RMAp7rIRtJ4SQCUjhnDrmKmSFdpd9JCs20blg7uBcQDM3pl6q=w160-h200-n-k-no-nu,-6.8824311,107.6009737
Dansarasa,kuliner,"Dansarasa adalah restoran bertema nusantara yang sedang populer di Bandung karena konsepnya yang unik, memadukan taman tropis dengan ornamen bambu dan air terjun buatan.",4.4,25000,125000,https://lh3.googleusercontent.com/gps-cs-s/APNQkAEFW52_Zr3fjnERcsPCbj_f2DxtcQ5h7VLYf52zRldzPqDihlhp0aNaCP-U9pYaO9aXWv0BRDoJ_lgBKSOly7-iM2vKVNVfGvrUc6hyz7BJwSUxIGL8NLAmtQRZ3aEExy45r8XKdP3R9z3E=w160-h114-n-k-no-nu,-6.9125591,107.5995157
De.u Coffee Dago,kuliner,De.u Coffee Dago adalah cabang terbesar dari De.u Coffee dengan konsepnya yang estetik. Tempatnya nyaman dan memiliki area yang luas.,4.7,50000,100000,https://lh3.googleusercontent.com/gps-cs-s/APNQkAFOtE3ay4ePd1QuOr3Gu3gMj9qqYScPwv-GzsnVuTWeKQZFPxhTVJpYu_dH_TmbUvcjk8GrSLoFRxsZkz4JJSgXN2pLMfhdx-2_8ayPyVbnlSgXQioCBsSvCkNsXN7h5KAndChpF0R_urQ=w289-h312-n-k-no,-6.8712236,107.6276329
Golden Plate Steak,kuliner,Tempat makan steak yang murmer di Bandung!,4.4,25000,50000,https://lh3.googleusercontent.com/gps-cs-s/APNQkAFAp2yAuBxFU91_AaDqL7I7i-Nct9srRwNFU0iJd31s6n0JFFfqy2PGyEehr_EBhFEtNTeuPdcSqaJ7JzCdbqlSld7L5APKrk6VLz9L0n0TbYk9QFNpgnfJ4OW7k45LUuIc5egTcA=w289-h312-n-k-no,-6.9146931,107.6347749
Rumah Sejoli Purnawarman,kuliner,"Rumah Sejoli menyajikan menu-menu dengan cita rasa menggugah selera, mulai dari nasi lemak ayam goreng, mie kari, chilli pan mie, nasi ayam tiga bawang, yang tidak hanya enak tapi juga bikin kenyang.",4.5,50000,75000,https://lh3.googleusercontent.com/gps-cs-s/APNQkAE90Qb17H7HEUXP92Y5_WIy9gBZE5uk13NZE1-fIW3y9DhfndNUe38ZlhJhnQi_GHdmk2H13H-p22yo3r3o9y21utNFOioa8gvlfreZZ3Ui9dYNcPj-Y-oout02LkouXf6QczvLFThJt2oA=s1360-w1360-h1020-rw,-6.9054014,107.6094866
Woi Supertiam,kuliner,"Woi SupertIAm dikenal sebagai salah satu tempat nongkrong yang punya suasana santai dan konsep sederhana tapi nyaman. Tempat ini sering jadi pilihan buat yang ingin ngopi tanpa ribet, ngobrol lama, atau sekadar menghabiskan waktu dengan suasana yang tenang.",4.8,50000,75000,https://lh3.googleusercontent.com/gps-cs-s/APNQkAE85ySLfSY3zyDrgMVu_mYlLkd47VEKv7j99G2fZJgyXNVUoG7tYdWv-RWgBgjsYBjvkai-UpAOOOYVW8zQXrcqG9lXY9ZibfulBenH8_stdgvMC-3sAlFpMjbV1IPY6i9zN08XMOWVfXqJ=w289-h312-n-k-no,-6.9128814,107.6171231
Kopi Moyan,kuliner,Kopi Moyan Bandung merupakan rekomendasi tempat sarapan yang ideal setelah lelah berolahraga atau sekadar ingin menikmati pagi dengan suasana yang tenang.,4.5,25000,50000,https://lh3.googleusercontent.com/gps-cs-s/APNQkAEKt5itWD5Z4ObtHxhL4FOYbP7KPI2p_CJhoHbNScbKdVVgIgBY-ayoLoiAroJKLpvcJx90mUZTIgzVotA8EdU1tjHUWpWB3iHLCWcab3qc-ALjmj2lC4aDPYojfiUxEo2tsXhOkrDzbLc=w289-h312-n-k-no,-6.9135593,107.6277418
Situ Patenggang,wisata,"Situ Patenggang adalah destinasi yang menyatukan harmoni alam, ketenangan, dan kenyamanan fasilitas modern",4.6,25000,100000,https://encrypted-tbn0.gstatic.com/licensed-image?q=tbn:ANd9GcTW_ixjhNqPmpvRpaJNsDW8AvAA5A9rP6Bef2vyLd6-YHld1IxmlEFaDE7HkwwcTSvaif0l0pwLA9q-lynZOLJ-VKg&s=19,-7.1672928,107.357673
BERG Puntang,wisata,BERG Puntang merupakan adalah sebuah kafe di Cimaung yang berdiri di atas lahan seluas 1 hektar di kawasan wisata Gunung Puntang. Nama BERG sendiri terinspirasi dari Bahasa Belanda yang berarti gunung.,4.4,25000,50000,https://lh3.googleusercontent.com/gps-cs-s/APNQkAE1ANNescnfyZzx2exws-fbzC3h7jEr4ldqOhK8AnS83-35-F3fXrgF6uR8Mriczxa9s-VPtP3hT7SuVdsNL28vuu_0UpPwchiepCG8YY0xu8qxpX4iv2fWFQ6Z-9Np9GP7gDUnAAAA_6_0=w289-h312-n-k-no,-7.1162322,107.6059358
Tepi Gunung Nature Park,wisata,Tepi Gunung merupakan sebuah obyek wisata di Bandung berupa taman dengan keindahan alam dengan pemandangan menakjubkan di tepi gunung Burangrang di Bandung Barat.,4.3,5000,35000,https://lh3.googleusercontent.com/gps-cs-s/APNQkAFXRvZYKZuDfxuj8psjp2TOk3QeK9W24LmWbX7S0oVk4ALI_NsUdGzdVQ8dgrn4jy9sLNFtDbAT0FzKFMWV3zoGwu_SeUnTQNmNYqgVGrN9O9pIOGd4J7I35YX25GOyHLuT_r5Frg=s1360-w1360-h1020-rw,-6.8076252,107.5583509
Sanghyang Kenit,wisata,"Sanghyang Kenit adalah lokasi yang menawarkan aktivitas rafting, arung jeram, dan susur goa di Citarum Purba.",4.6,10000,15000,https://lh3.googleusercontent.com/gps-cs-s/APNQkAEnzEqnNFEz4dhEAVqMYhXsiFgy3skmR6LOhaPchOe-boKaxkLqfJGiGt2N-jH4clNdcAdGQ7ZPJED-QsACAWCsaF_ea0dffON-aczGhwLqtMTASQrAORCJiRqoHZLpg2RSx0A=w270-h312-n-k-no,-6.8582198,107.3498993
Ranca Upas,wisata,"Ranca Upas adalah kampung cai di Ciwidey, Bandung, yang menawarkan pemandangan alam hijau, penangkaran rusa, dan fasilitas camping.",4.6,25000,100000,https://lh3.googleusercontent.com/p/AF1QipO5Zw6AfPfkB2lOJdSHL3pzW5gT2d4xep0gbwpm=w160-h134-n-k-no-nu,-7.1384888,107.3895529
Braga,wisata,"Jalan Braga di Bandung adalah kawasan ikonik yang memadukan sejarah kolonial, kuliner legendaris, seni, dan pusat perbelanjaan modern, menjadikannya destinasi wisata wajib di Kota Bandung.",4.7,0,100000,https://lh3.googleusercontent.com/gps-cs-s/APNQkAHMQtNcCZXtV7bdrrhNofXP3HouMN3FNcWdER7ZjxvaygqfksGecd7gJIA_sRymP1ZUk4sp3XbKbqVCRfcMJcoauiQ8qXznXPul0-a3PSF6na0c1wY6A1DcCL8X4GV7QAyA2g=s1360-w1360-h1020-rw,-6.9181555,107.609031
Jl. Asia Afrika,wisata,Jalan Asia Afrika adalah jalan bersejarah di Kota Bandung yang terkenal sebagai lokasi Konferensi Asia Afrika 1955 dan menjadi ikon wisata budaya serta sejarah,4.7,0,100000,https://lh3.googleusercontent.com/gps-cs-s/APNQkAFsM-wPK1dAGq_ROY1f_geRXLRfqgx95LzZmkk_gkO6ethai7iU9oqOUG5ZFuHbT6ZK259JGLHj5ScZ0txbDK00aMk1KNQRoWRB3bZxSOzuzncTXdfIdQy0gf_l70RtLSlTOMFq=s1360-w1360-h1020-rw,-6.9216026,107.6108618
Farmhouse Susu Lembang,wisata,Farmhouse Lembang merupakan tempat rekreasi keluarga yang terletak di Lembang yang menawarkan berbagai macam aktivitas seru untuk anak-anak dan keluarga.,4.4,30000,100000,https://lh3.googleusercontent.com/gps-cs-s/APNQkAExG1KQkLKFYyddObPzIe1l3U6QafVBIzg5eJhIBJ1HiZ6Lr6qfJUemSLzHV36FGjTI2Hh4ico2fyDJ5_89fVOZpBrUlNR_2kpCYm7mqnbdX6Ld-UXmmiyK9G6UBDd15-4RRKJeQQ=w270-h312-n-k-no,-6.832969,107.6056183
The Great Asia Africa,wisata,The Great Asia Afrika Bandung adalah destinasi wisata Asia Africa yang menggabungkan edukasi dengan artistik.,4.5,50000,100000,https://lh3.googleusercontent.com/gps-cs-s/APNQkAHiWdhVhVtjJBTfBfPnpyShUcks7CXbanF67_jK15v7e52uulT6bUU147PuDKQyFUGui1ul3CZJu24wUggRtg6-iFn29b_cswnPIlb8xUF2F5aRGJPOHBYSOdcYtCLoXwMVvAk=w270-h312-n-k-no,-6.8326049,107.6047628
Orchid Forest Cikole,wisata,"Orchid Forest Cikole adalah tempat wisata yang menawarkan keindahan hutan pinus, anggrek, dan berbagai fasilitas lainnya.",4.6,40000,100000,https://lh3.googleusercontent.com/gps-cs-s/APNQkAE-RxIaCxZZw568AWWectcHw1CcKGPuZ1kUNUxMuESYFng90JStuKkBTjY2-cqjuZVIkJ8aWFix7yAegqKgbrQ3lPiY_zq8l5VwJ-0uafo5diycFFU4MTg_aH9vyLCBXQJG1YI=w270-h312-n-k-no,-6.7799539,107.6349443
Tangkuban Perahu,wisata,"Tangkuban Perahu merupakan salah satu destinasi wisata populer di Jawa Barat, menawarkan pemandangan alam yang indah dan berbagai atraksi wisata.",4.5,30000,100000,https://dynamic-media-cdn.tripadvisor.com/media/photo-o/07/18/b1/5c/tangkuban-perahu.jpg?w=900&h=500&s=1,-6.7596375,107.6097807
Nimo Highland,wisata,Nimo Highland adalah tempat wisata di selatan Bandung yang menawarkan pemandangan gunung dan hamparan kebun teh.,4.4,30000,100000,https://lh3.googleusercontent.com/gps-cs-s/APNQkAHDA56s9v3Dyx3FiY8HukecJzwvep3hdjZplVxnZzghRaN7bk9N_RG8ZK9zPjfhJdDY0PoXRlo4dJdUejhKq7JcUIXx03ax3O2nCLplw49--n-i1e8ZXCAz814nTfmiGsvOvTp0gg=w270-h312-n-k-no,-7.2202947,107.5773769
Kawah Putih,wisata,Kawah Putih merupakan destinasi wisata alam berupa kawah vulkanik yang terletak di kaki Gunung Patuha.,4.5,20000,100000,https://cdn.bandung-tour.com/wp-content/uploads/2025/05/kawah-putih.webp,-7.1661541,107.4021396
Dago Dreampark,wisata,Dago Dreampark merupakan atraksi wisata alam yang memadukan antara keindahan hutan pinus dengan berbagai wahana seru dan menarik,4.2,60000,100000,https://lh3.googleusercontent.com/gps-cs-s/APNQkAFLyzxNTyiSsWOUx3aCsyWlaG8bYRu8kTwIoDC6fJ5dS20W3iGxj08Nupi-br5m-_y5ACV4NiRGABwX8HW5Wjo7f1vfgNkFJXaP4mlm6hSnduZe9EQQMWgZRyJNe7IR4vU2rHOu=s1360-w1360-h1020-rw,-6.8484061,107.6259371
Taman Hutan Raya Ir. H. Djuanda,wisata,"Taman Hutan Raya Ir. H. Djuanda, atau sering disebut Tahura Djuanda, adalah kawasan konservasi yang terletak di Bandung, Indonesia, dengan luas mencapai 590 hektar dan kaya akan keanekaragaman hayati serta sejarah",4.6,17000,100000,https://lh3.googleusercontent.com/gps-cs-s/APNQkAEjRbQPyyvDbNALHkyJR3VSFQMKmTdpqcJ8C6LNxPFqvptWMf1yUgcqNhcEfU7jVVU_wZQH7VXrBbxrIozYUGfy6H3wzOXLzXso-P8TsmTG4wp70Oo08MDF4jCImee0sV-es7jiXg=s1360-w1360-h1020-rw,-6.8588704,107.6307321
Kiara Artha Park,wisata,"Kiara Artha Park adalah taman tengah kota yang menawarkan berbagai aktivitas, wahana, dan fasilitas untuk wisatawan.",4.6,10000,100000,https://lh3.googleusercontent.com/gps-cs-s/APNQkAFq5r1CYCNIyvaRBu4u6D7XgZ6MzYsriyC05ysFdnvCa1xlHvuF-a-L1097888Rup_3Y-JGsJzoy7Q51P8PweyUF6c6pNuKQEttE9c_hg_4I_EZ7nSIvUiFFIxcAFbvzyHhn890QQ=w270-h312-n-k-no,-6.9161952,107.6422296
Trans Studio Bandung,wisata,Trans Studio Bandung adalah tempat rekreasi terbesar di Bandung yang menawarkan 18 wahana dan 5 pertunjukkan,4.6,200000,300000,https://lh3.googleusercontent.com/gps-cs-s/APNQkAFxwqniJvC84YshilpXIC5lKyxgQGLqGv8Gc0IPc_KQpT-JetNTKJFGxInAeV9AVF8ECT9wrv92p32LT_-JcH8us4QUliqtFc_HXVzd3hegL0HqWHZtlGyPmoYX21gp0VrIGXMV=w270-h312-n-k-no,-6.9255416,107.6362786
Gedung Sate,wisata,Gedung Sate merupakan bangunan bersejarah yang kini menjadi salah satu ikon Kota Bandung.,4.7,0,100000,https://encrypted-tbn0.gstatic.com/images?q=tbn:ANd9GcTx8i1kd8UYxJHj1dJxkXLf5aOVomGXx-YCcGMX5fEjCbTCOnqaEtHVDTM&s,-6.9024715,107.6187018
Museum Geologi,wisata,"Museum Geologi Bandung bukan sekadar tempat penyimpanan benda-benda geologi, tetapi juga pusat pembelajaran yang menghidupkan sejarah bumi dengan cara yang menarik.",4.7,3000,25000,https://encrypted-tbn0.gstatic.com/images?q=tbn:ANd9GcQNwZIjyudmeXrBISspwy7vQ7KfqyMoW3TGh_5f0VEGLggSWKGCwZz92Qc&s,-6.9007162,107.6214553
Tebing Karaton,wisata,Tebing Keraton Lembang Bandung merupakan sebuah tebing yang berada di dalam kawasan Taman Hutan Raya Ir. H. Djuanda.,4.5,17000,100000,https://lh3.googleusercontent.com/gps-cs-s/APNQkAEsfXUfyjo0rkBiMkzpOkyalNVH6F8FxEJv7GsymTrX-VKU2BWGRtm34ZONPqPX18LLhHfo3vHWQBVypPYSSJhtzt9qPl7Wx8x822oklVYcRSL3DzXV37eR6wCOZoyfX3kb3gdn=s1360-w1360-h1020-rw,-6.8348771,107.6637416
Monumen Perjuangan Rakyat Jawa Barat,wisata,Monumen Perjuangan Rakyat Jawa Barat (Monju) adalah monumen dan museum di Bandung yang menghormati perjuangan rakyat Jawa Barat dalam melawan penjajahan dan mempertahankan kemerdekaan Indonesia.,4.5,0,50000,https://lh3.googleusercontent.com/gps-cs-s/APNQkAFj5hYMLXETLTy0GaNLjOVPPy9eR7knOHdB43vcdEBleBe8dOzRbQK-kI8flB16WqG5WptroJsN2Ho7zy_qFhBPyhj6DSgkpthXmqnCqF-4eyFpcHdOSWx506TCkU0kJ2d0RQ5-=w270-h312-n-k-no,-6.8934327,107.6185513
Gedung Merdeka,wisata,Gedung bersejarah tempat Konferensi Asia Afrika 1955 berlangsung simbol perjuangan kemerdekaan bangsa-bangsa Asia Afrika.,4.8,0,50000,https://lh3.googleusercontent.com/gps-cs-s/APNQkAEuwbXsqfzu8926YYfJvqufyEDc-eLZZrC6WBtz5ybz9oZcv269ct4Mr08zspXSM-Sx3YX97uV9tK0JA3xPk-1SlnYo4VKUcwQ8QN7u0MyL_skuJpRbpiCLC87XNdZ370oGId9f=s1360-w1360-h1020-rw,-6.9211736,107.6091704
Museum Sri Baduga,wisata,Museum budaya Jawa Barat dengan koleksi artefak pakaian adat dan benda bersejarah Sunda yang sangat lengkap.,4.5,2500,50000,https://upload.wikimedia.org/wikipedia/commons/thumb/d/d2/Sri_Baduga_Museum.JPG/1280px-Sri_Baduga_Museum.JPG,-6.9376435,107.6034883
Saung Angklung Udjo,wisata,Pusat seni dan budaya Sunda dengan pertunjukan angklung interaktif wayang golek dan tari tradisional yang memukau.,4.7,60000,85000,https://lh3.googleusercontent.com/gps-cs-s/APNQkAGxchzTtEAVTDf7fHKZ7MVprbJuCYamxdyq4tY5mH0PWWtNMM7AaxVvI4-W9WBNxqFWcnpmyOahVp9_VoyE-9WMWIOEDIQYS7VzkJwX9_EHSLqC-DTtWYxMdiW1DWgpDskQ14aFtA=w160-h134-n-k-no-nu,-6.8980048,107.6552562
Masjid Raya Al Jabbar,wisata,Masjid megah terbaru di Bandung dengan arsitektur modern dikelilingi danau buatan dan taman yang sangat indah.,4.7,0,50000,https://www.hutamakarya.com/storage/whatsapp-image-2022-12-30-at-75827-pm.jpeg,-6.9481145,107.7035012
Tokyou Japanese,kuliner,"Restoran di Jl. LL Martadinata No. 85 Bandung yang menjual aneka masakan Jepang dan Western. Menyajikan menu sushi roll, hotplate ramen, salmon hotplate sushi, hingga chicken katsu dengan harga terjangkau mulai dari ribuan rupiah.",4.7,25000,50000,https://lh3.googleusercontent.com/gps-cs-s/APNQkAF3XM8KyxO0VlDTY8hBCYSo7V6y6YSNAabnmaqWEDfzGQe4WNH3tVcGyMtPwarHUNaMxP-0Z86fWSqZFeGtW6iQf3KEmRgs9G4wxbJwd2RhcWPMBan2MumDVPWFmTlQU8Gnk4is=w408-h544-k-no,-6.9058608,107.6191704
Naughty Neighbors,kuliner,Kafe hits di Bandung dengan suasana cozy dan menu beragam yang sedang viral di kalangan anak muda. Cocok untuk nongkrong santai dengan berbagai pilihan makanan dan minuman kekinian.,5.0,50000,100000,https://lh3.googleusercontent.com/gps-cs-s/APNQkAGptBEczzTunD3gVyAIcTvEjobI-CrYDMNBepKzrMO2iqGHIKE8kb8ewTusCNW-Nrz2Dob-ZRydXUMlkSCudk-5_b1MxiZNhJOxD6XbqwhL-kh2av139AzvsBLnbWD84dj_ccmS9KTB7dT0=w408-h510-k-no,-6.8974723,107.6170081
Ayam Kukus Bengawan,kuliner,"Kedai di Jl. Bengawan No. 56 Bandung yang viral di TikTok dan Instagram karena ayam kukus berbalut rempah khas. Menu utama terdiri dari ayam pejantan bertekstur padat dan ayam kampung yang gurih autentik, dengan pendamping sambal korek dari cabai domba murni.",4.1,25000,50000,https://lh3.googleusercontent.com/gps-cs-s/APNQkAGwIjlox6WjmoHk8jdkRC4qYttrgZq2RqnpYmDjw5emYWm8yix1YKNik5YULyiwKWqbdN8uiAwRApuCiVr8BQ5OwVat09JOS3EFrDEmiQJFCfTw2R92HNMb3pmZddPy96-DYkbDIGVu6UY=w408-h544-k-no,-6.9085723,107.6272747
Ayam Kampung dan Sop Rimbun,kuliner,"Warung makan di Jl. Sumbawa No. 28 Bandung yang menyajikan ayam kampung goreng dan sop rimbun segar. Menu nasi ayam goreng kampung dilengkapi ceker, ati ampela, jukut goreng, dan sambal.",4.0,50000,75000,https://lh3.googleusercontent.com/gps-cs-s/APNQkAGmuURig06sAFQTYs6avIZnc4WH56xyRxK-4GwwUg01cG0G-pvNVc18fi3NTmEhEoc2Rr346NY7dPyB2_KrvIQqEdVyUn-wmbHkSqBV0UzhfVyEdZUxpwV0rV2ERi_iqTzt_YLXtMN7G60=w408-h725-k-no,-6.9125591,107.6082705
KONARO Coffee & Eatery,kuliner,"Tempat yang strategis di jalan Aceh, cocok untuk WFC (Work From Cafe) ataupun nongkrong santai!",4.8,25000,50000,https://lh3.googleusercontent.com/gps-cs-s/APNQkAHzNaTh-sshyEAVZ-wJn6MaKngBbimstmidtcbEtF97MkmwdrInnUVOgZtR_A5wOvUq0RSl6X9b1wBaBfxDloX5LgIV4fVoIcC_QF4PJNSiKKUXwTfh7iMwkPZJYHXRglgkjizDCeAXlcM=w408-h610-k-no,-6.9089697,107.6185343
Noisy Matcha 1.0 // SOKA,kuliner,"Kedai matcha hits di Jl. Soka No.23A Bandung dengan menu andalan matcha latte creamy, matchacotta, matcha cheesecake, dan roll cake matcha. Menggunakan ceremonial grade matcha dengan konsep nuansa zen yang cozy.",4.8,50000,75000,https://lh3.googleusercontent.com/gps-cs-s/APNQkAFw5VVvWbIiE4IdmwRpsJO-VhUOMvkFe8FEUgbvKsCzl5Xpigf4OK2Zf-6f8hkRISPtcvmca9hhVWbuR02HafjYg-oT-6E5vHflFakg5Ypf0bxoYMDjadSpsl3PrWQc74vBTdQOlfCANU3L=w408-h544-k-no,-6.915432,107.6282569
MISOBA SARIJADI,kuliner,Kedai mi soba Jepang di Bandung dengan kuah kaldu gurih dan topping lengkap. Menyajikan berbagai varian soba dalam suasana yang kasual dan harga yang terjangkau.,4.8,25000,50000,https://lh3.googleusercontent.com/gps-cs-s/APNQkAFr-PoaIbrI8te2-TFRkDSCeQDnI9x10gjcjQOOFf4Ws6x_KCeF1GRoQ8st_sNVsExExfgRNAayWkCOivJlDfLyxADvX94hCQImxEs_lOZoPtUeFjzjXlFb1TYyXwyYpnSlomZS11McI7Jc=w408-h725-k-no,-6.8797918,107.5680698
Nightcap Bar Bandung,kuliner,Bar dan kafe malam di Bandung yang menyajikan menu minuman kreatif dan makanan dalam suasana cozy. Cocok untuk bersantai di malam hari bersama teman.,4.7,25000,125000,https://lh3.googleusercontent.com/gps-cs-s/APNQkAHVf2YitHICwWwDRnLErL95txfsgmqCEqNZUhingwymh9LP4TkwpVVbo9HueWeA_MZlP6ZElEZ5YkmvJR5J34BJ8MMSx5rsNvr2DwdJ_SWP2nrGwxkTDeApZ9fPFyT-ae-WkcY=w408-h272-k-no,-6.8666473,107.6034125
Kanoko Coffee,kuliner,Kedai kopi dengan konsep minimalis Jepang di Bandung yang menyajikan kopi specialty dan matcha dalam suasana tenang dan estetik.,4.7,25000,50000,https://lh3.googleusercontent.com/gps-cs-s/APNQkAHX6xS53x_9XEbdtaXYwIQ4T-ARHoGjiZ0R_LW3Jtzj_iB_t30klE8tlFsEjs9XQSQOC5O07ZC7xgS_Ha2AiHdKaIJ8dA7ouEuSFeDewvtgIteoiRKb2wuTrTcw61RFsfKup6sd=w408-h306-k-no,-6.8763647,107.616329
Kurokofee,kuliner,Kafe aesthetic dengan menu kopi hitam khas dan berbagai minuman unik yang instagramable di Bandung.,4.6,25000,50000,https://lh3.googleusercontent.com/gps-cs-s/APNQkAFquR2YeHVrbZst1fid-1p_mQKmuoIuS99nISqaq6l3dDb7Mty_akI45LAQJPWe4MTNhtXZgawI1CxZfc-NIIdIqZNUnw7mqzFP_9uYNDIvqqoRUMiFbzCBqiAzVVXm6rnqrdQ=w408-h510-k-no,-6.8710819,107.6057395
KOZI Coffee 2.0 BUDARAA,kuliner,"Coffee shop dengan konsep hidden gem yang menempati rumah tua di kawasan Dago Atas, memadukan suasana klasik dengan nuansa modern.",4.6,25000,50000,https://lh3.googleusercontent.com/gps-cs-s/APNQkAFpFixNX_PO1f2e89WQlr3eOez48RQCbjUJRFjVR7NO_tkK7uFTMJ6GQgPh8Wc1cs1uK2l30Q71trEzwpxkQgxrPjWkPpk841Gie810WobDstV16dYi_6SbwhQvIPPLqpf_8k9WJat3C9K8=w408-h612-k-no,-6.8690548,107.6172425
"Sejiwa Coffee, Progo",kuliner,"Coffee shop luas di Jalan Progo dengan bangunan berdinding kaca yang memungkinkan banyak cahaya alami masuk, menawarkan berbagai pilihan kopi dan makanan.",4.4,25000,75000,https://lh3.googleusercontent.com/gps-cs-s/APNQkAG5nyAs-SDsP4LGVrjdKTopwyVCEMBPSYdGOdroPdzkRXHzihLoYYrsy3HzQ-swq9T7brcd4jJjn7i7gIqSvh1fhdaUtG8Ywl9Hh6kdPJsGmBuleWa_ZKT2wu4k8JP9v2F_0hcd=w408-h408-k-no,-6.9043658,107.6185831
Morgy,kuliner,"Coffee shop yang berlokasi di dalam kompleks galeri seni Ruang Dini Bandung, sehingga pengunjung bisa menikmati kopi sambil menjelajahi pameran seni.",4.5,25000,50000,https://lh3.googleusercontent.com/gps-cs-s/APNQkAHhntgXgocSCoOoB1K1UCyXA5CNxDkmdxmUPEuH3YU402KSSouH9NOaUm7syfp8avrPjn5wLwDKGQ4rioFcsi_ADgCj5o2Z-obFVGJidbQUos6sZOpVEXhWpKUoFUZrkepv_ehR=w408-h725-k-no,-6.911779,107.629602
Toko Kopi Tuku,kuliner,"Kedai kopi yang lahir dari obsesi terhadap kopi berkualitas dan kepedulian lingkungan, bekerja sama dengan petani lokal yang berkomitmen pada praktik kopi berkelanjutan.",4.6,25000,50000,https://lh3.googleusercontent.com/gps-cs-s/APNQkAGo4p7IYOLf2j1wDByxCOrNegK6xN_0MUeAQ2O5vw3KP0l4Mz8DvWar4Nq4Zs-HOB5CcK7ii68iTqeqw_nUTywtmfMVTgkSR6tpJT7c0PymU5P5YC9WlSZRFyLYOF6dq1u4esvX=w426-h240-k-no,-6.9074775,107.6182402
Makmur Jaya Coffee Roasters - Surya Sumantri,kuliner,"Didirikan di Bandung pada 2018, Makmur Jaya Coffee telah membangun reputasi sebagai kedai kopi berkualitas dengan basis pelanggan yang loyal.",4.5,25000,50000,https://lh3.googleusercontent.com/gps-cs-s/APNQkAGETYUQmwY41lDfxN2wVvNNrPys7P6sVluvH5bsuPZWSTpqqA5_gAtYUD3nnsB_wkRHoebzDQbmILAWyHVVYD4GkDxvg8qfjnQcWYOok8U_Dlp5gFfBFftKwNhkmqMwM0HvpI_Vo5KLOxtK=w408-h306-k-no,-6.8824598,107.5811692
Kopi Toko Tua,kuliner,"Kedai kopi tematik bergaya tempo dulu dengan ornamen lawas dan lagu-lagu era 70–80-an, mengusung konsep Coffee to Go yang cocok untuk komuter.",4.8,25000,50000,https://lh3.googleusercontent.com/gps-cs-s/APNQkAH9E1WShrbNmqcpv7494VWXATnldaClFKIdl1tFqW5k9f3JfdX7Tr5f71aET1P9Si6nZmkEqWcK_s0JvAhTZx5Ifikg47nO5EbiHa7fJooZVw7h002IAFa0snIE1EAmquhKC-C1PXSvh3KF=w408-h306-k-noo,-6.92774,107.6127927
Smol Sips Coffee & Roastery,kuliner,"Coffee shop baru yang hadir akhir 2024 di Lengkong, mengusung konsep minimalis modern dengan area indoor dan outdoor yang nyaman.",4.3,25000,50000,https://lh3.googleusercontent.com/gps-cs-s/APNQkAGu78xv1hYIgGIz1XhZd5ire1ewyt4lVEkIvq8ApGoEMNXOJYtT86O7iDlXPYEj4Nm85ZXFtvK-Tj6uwjd4NcpoRgqpvOHyEPQdhDmvcwNB50GYinzAvhtWKWXYXMgJOFMqZRzn=w408-h725-k-noo,-6.9409782,107.628403
Eskalasi Space,kuliner,"Café dengan konsep minimalis cozy dan tata ruang unik, dikenal dengan Es Kopi Eskalasi berbasis Arabica yang creamy berkat campuran susu kelapa.",4.5,25000,50000,https://lh3.googleusercontent.com/gps-cs-s/APNQkAG-BApf105j-sI0rzfEUI5_7K4P22IVhtQdqAl7xY-McLVbVLyOCsnOk9cgYItaHWNN2b4ePe5LKQqCOGX65sejAZ4P_5WJWv-A0ZvW-So__frg2rK0QRl9WiQIsjVGT8JBBOxvnBCFamxA=w408-h544-k-no,-6.943409,107.6260214
RM Sedep Raos x Tetangga Tiga Satu,kuliner,Kedai kopi di Puri Dago Selatan yang unik karena berkolaborasi dengan Gudeg Ceker Seturan — perpaduan kopi dan makanan khas Jawa.,4.0,25000,50000,https://lh3.googleusercontent.com/gps-cs-s/APNQkAHng9Lf-fWvmQInSRzw94p892bU3KccRjJBIp-uAEbZJudxMEZMJN6uZAfxyMItdlnQKSSpOP0Y5n7LenaANlNA0Q0YKOde2YxZop4vaiFrNf1LrOobbRGYnk50nQ6-3DhkvbWSekN1m51g=w408-h577-k-no,-6.92036,107.6692165
Gin No Yatai,kuliner,"Kedai bergaya yatai Jepang di Jl. Teuku Umar, Coblong, yang menyajikan ramen, gyoza, karaage, dan donburi.",4.7,25000,50000,https://lh3.googleusercontent.com/gps-cs-s/APNQkAHUV21VqBP6hKoogRuhEEWVO0-j4O4vSKAvolf-EnDYAXErkmArqE9C9Uq5g9Q5dC-9ZbTkH-AAlRQHg09yIJYe6gKIvMt2s8864h0W1_iqIS4zwulXEpTC3Z56d7aggb7N5jFn9DcNzALn=w426-h240-k-no,-6.8922953,107.6173807
Carlo's Chicken,kuliner,"Carlo's Chicken adalah kedai di kawasan Gelapnyawang, Bandung yang mengkhususkan diri pada menu chicken strip dengan tagline ""Happiness in Every Strip"".",4.5,25000,50000,https://lh3.googleusercontent.com/gps-cs-s/APNQkAGLm5-cwt6cKCiRHXcn95wj8kIey9Es3heLA_fiwU_T0vPYaMdIAcaJIYVp6KQCBR7oKlQnuoxYjqCu3qoCvbgnOsJJe7DeV0q6rsJKy0rhE5sd24cIschj9m3XGxZnPEqqxsljWAW4j_vp=w408-h724-k-no,-6.8950664,107.6092017
Brother Chang,kuliner,"Brother Chang adalah restoran yang mengusung perpaduan cita rasa Asia dengan kisah inspiratif tentang keluarga dan kerja keras, resmi dibuka pada 22 Januari 2026 di Jl. Dipatiukur No. 73, Bandung. Menunya lintas Asia — dari Indonesia, Malaysia, Singapura, Vietnam, Thailand, hingga sentuhan Jepang dan Korea — disajikan di ruang yang luas bergaya homey dengan dekorasi seni khas Asia.",4.8,75000,175000,https://lh3.googleusercontent.com/gps-cs-s/APNQkAEXw3hWEwzeULUEj05A1oj2chupNlKkREc-Mc688gdxz52mNfvYxvqpEnZiD3C1ZYTqo-KMNuoD-AvRnPHJiaE0_VnMBm-tMsl44DwY03KRTpUzkwh3iDByRxUmJSY4ccMBBg0lO6FOISM=w408-h544-k-no,-6.8888849,107.6155648
Suppper Wok,kuliner,"Supper Wok adalah wok bar berkonsep Thai fusion yang berlokasi di Jl. Anggrek, Bandung. Selain pilihan protein dengan nasi atau mie, tersedia juga gyoza sebagai pilihan appetizer.",4.9,25000,50000,https://lh3.googleusercontent.com/gps-cs-s/APNQkAHg8ZxSu3hbI5YBMiFIz3XNYI1_r2Hd1gRC3ntTFYKH3zntzxttRuz2DGyjGgHfxMFbOMO5wwWKqT1iRdetAnIRP-kyMKCwCSDeYME0BXSb_2yqzIyEAl_DQapeQGsPcjwWWqM7zRgki-ys=w408-h544-k-no,-6.911784,107.6203799
Nhame Asia Afrika,kuliner,"Nhame adalah sentra hidangan Asia halal yang berlokasi di Jl. Asia Afrika No. 35, Bandung, buka setiap hari pukul 11.00–22.00.",4.7,50000,75000,https://lh3.googleusercontent.com/gps-cs-s/APNQkAHN6jo3hBmx4AAG3XK1FhQORvov7mz3MWSfgrCTcCWHfrrHHHrtnJmqsrVXAXIjQNRjxlICq5RLvF6-HS8tgtdEBBi57_lc62lXY7156aPtYsExSH6JbK7EYm4zq0av1gaUFgahhDBM8W29=w408-h544-k-no,-6.9208414,107.6053047
Greens & Beans,kuliner,"Greens & Beans adalah café di Jl. Bahureksa yang berspesialisasi pada menu salad, bowl, dan hidangan berbasis sayuran — tidak eksklusif vegetarian, namun sebagian besar menunya berbasis tanaman.",4.7,75000,100000,https://lh3.googleusercontent.com/gps-cs-s/APNQkAHQCEZ4xgvpIdSLiB_quLh7CVskfgAvBbwbURBLr-jd9zcmhhwdHwbCvDHhit5H0h39D5XKNmWBsYYP_SXcy_5xNO5-08_uVljtX54i9_Dc5c20W0ZsH6vmkK5xS5JCgrsZ4F_Q=w426-h240-k-no,-6.9050898,107.6145267
Rempha,kuliner,"Rempha adalah restoran hidden gem di Jl. Bangka No. 6 Bandung yang mengusung konsep one stop visit dengan berbagai masakan dari negara-negara Asia Tenggara, dikelola oleh alumni MasterChef Indonesia.",4.7,50000,100000,https://lh3.googleusercontent.com/gps-cs-s/APNQkAFwgzLvrHsncrCiwsi59zFTo9gUToJvOAdulJca4WyOiLxm53ikasr-4PIaVb6EvTmEBuu9SR0WW5d4ALlZgnUt0hexCrxleYlIjUjQmLG3_bgVCs_KLRhr9-mGigkH3X9P23zY0sdf8RD-=w408-h725-k-no,-6.9145619,107.6190964
Mie Sapi Pedas Merona,kuliner,"Mie Sapi Pedas Merona adalah kedai mie di Antapani, Bandung yang menawarkan mie pedas homemade 100% halal dengan daging sapi cincang, tersedia dalam berbagai level kepedasan.",4.7,1000,25000,https://lh3.googleusercontent.com/gps-cs-s/APNQkAEmyO-IBpbnm-QUIYF1NMxMOKnXrcvj7k0_rE-GjW_bqigzEtuj9-ykD4dnVmHMbHvD-zDOgWK69JSjbSdhq35VthUGmP5W-6PvxzSFTdD-OhUu54iUq5IjQqaWZ3-bxq0v6Kg-tMFPsFyk=w408-h408-k-no,-6.9171926,107.6580926
Tiga Rumpun,kuliner,"Tiga Rumpun adalah kopitiam halal di Jl. Sultan Tirtayasa No. 30, Bandung yang menyajikan hidangan khas Asia Tenggara seperti bubur, roti, bakmi, dan dimsum dengan suasana vintage yang homey.",4.5,25000,50000,https://lh3.googleusercontent.com/gps-cs-s/APNQkAFxE5XcG7QcCYZ53ziAVQnosqX2_AaWNZYcd0ynRgNqXKBRGtmck0Z6qIRCmC27ho7dLQBT7fwzQAe01gs-69SxoHtDNFGIL7DOUQlW5Njsi0Uc-Dq-It_KmSMGCI2McVadjkCwbx1Ny2UQ=w408-h544-k-no,-6.9036421,107.6145267
Tostilas Vintage Store,wisata,"Tostilas Vintage Store adalah toko thrift dan denim branded di Bandung yang menjual pakaian dan aksesori bekas berkualitas, dengan koleksi yang terus diperbarui.",4.8,25000,100000,https://streetviewpixels-pa.googleapis.com/v1/thumbnail?panoid=P7OMjWpxN4qsdETvkzzIBA&cb_client=search.gws-prod.gps&w=408&h=240&yaw=126.404305&pitch=0&thumbfov=100,-6.856235,107.5920875
Grammars,wisata,"Grammars adalah ruang kreatif bergaya vintage di Jl. Cihapit No. 6, Bandung, dikelola oleh komunitas Norrm Radio dan Spasial. Menjual berbagai produk seni dan koleksi unik mulai dari vinyl klasik, majalah, poster, hingga merchandise lokal.",4.6,50000,150000,https://lh3.googleusercontent.com/gps-cs-s/APNQkAEIiBtVZJFZRQU9EhYZd6z1YigwQrqOMqp1JZZ9y8I1w2ZsgygzGEJEo-M34a1mapEUIJz3mGUMG5fz0SrvrIAr2oMFnPXlFOdblW5S_XZTqhTqL7I9cBhP_MB81UBPxsZIDGw=w408-h544-k-no,-6.9083343,107.62175
Makna Dessert,kuliner,"Coffeeshop dessert di Bandung yang menyajikan kombinasi kopi dan dessert berkualitas seperti cake lembut, pudding manis, dan aneka pastry.",4.9,25000,50000,https://lh3.googleusercontent.com/gps-cs-s/APNQkAGkHH7ur0f_4fA0gw00M4NCxDIodIZqWSlGhTItikhwjDhWqZ7fiPMJJZJK9xyg9lPi5gN0vnFeSZzuIjNvmAueCrOy48oH6XpeisWauWngeQb2gBosjp1ZHEj66fWkGdQydr_7JdvNIyRd=w408-h306-k-no,-6.8955106,107.6352896
Ton Kedai,kuliner,"Ton Kedai adalah kedai comfort food Indonesia di Jl. Cisadea, Bandung, yang dikenal dengan kuah kaldu pekat dan menu andalan seperti mie ton sapi gulung dan ayam goreng dengan saus wijen.",4.4,25000,50000,https://lh3.googleusercontent.com/gps-cs-s/APNQkAGqiCZFnO_8jTlimEh6R0dRs2CEuM4odvZ41oZO2yglJvNwjJL9qVHwDJAYtKLYGn8OCemcRnb06J3bdqEnqT4JN3wE647DlehITRb8LB_9p3RkQPKJcOG9WyvveOBi-79kicfnHg=w426-h240-k-no,-6.9076183,107.6332306
Two Hands Full,kuliner,"Two Hands Full adalah specialty coffee roastery, café, dan retailer yang lahir dan berbasis di Bandung sejak 2013. Terkenal dengan kopi yang dipanggang sendiri (house-roasted) dan menu all-day breakfast, tersedia area indoor dan outdoor yang nyaman.",4.5,25000,125000,https://lh3.googleusercontent.com/gps-cs-s/APNQkAFz2vzE7YHcdaoCgE_W-uMHCWjRz_irCzcqWMcZ7YzEaIsihIndEAn59If4oyunQJs0LwS5Jg58ovkKz-fNqvEhdp4I5xNdVlUkX7Ny-qcUrn0FG7ItFFNjtIjtZeKi-SA9a-C3Sg=w408-h509-k-no,-6.8924806,107.6126885
Blond the bakery,kuliner,"Blond adalah bakery café di Bandung yang viral karena konsepnya yang clean dan minimalis, dengan pilihan pastry seperti croissant dan pain au chocolat sebagai menu utama. Suasananya homey dan tenang, cocok untuk ngopi santai.",4.6,50000,75000,https://lh3.googleusercontent.com/gps-cs-s/APNQkAHrBAySzN6sKt9IAp9AWvNA596A0aK00wunfCjSlwfP3Irw5J2PPHRKzkHQ52nlO_4gOP1RKlbJDxJAMIU6NmvF2rQDL5i0SOOsH2n5Jt61Biv5Y0_oU9Hap4FrtcOtzPshUPTAhF_aBa0d=w408-h544-k-no,-6.8923205,107.6151278
SUGU Cafe,kuliner,"Sugu Restaurant berlokasi di gedung yang sama dengan Jiro Hotel, menawarkan konsep perpaduan casual dan fine dining yang buka 24 jam, sekaligus berfungsi sebagai ruang berkumpul dan berkreasi. Menunya lintas dunia — sushi, pasta, steak, rawon, hingga garang asem — dan mendukung komunitas seni lokal.",4.5,75000,100000,https://lh3.googleusercontent.com/gps-cs-s/APNQkAEiTHihjYCblJYonZyOnd_-QMgfoEJJ75HhQLeuWxa01CtojlYSHLg_Gq6hYI3t7mEO39NpIZH74HZLmKsTHfpHJSex98e3bpow8Pqu7D6dTuJnamJBPbHhZrXdHkOFOPu1F2ns=w408-h544-k-no,-6.9029187,107.6116616
HUMB,kuliner,"HUMB adalah kedai burger di Bandung yang buka setiap hari, dikenal dengan patty yang juicy dan menu-menu unik seperti The Luau Humb dengan topping nanas.",4.7,50000,75000,https://lh3.googleusercontent.com/gps-cs-s/APNQkAH5CJP9CO_cQvAjkMGw9jrdi1eogMQKKYeV0tX7z35PdSVas9TEL5EEfpxQqT6uIeQXYfsfQqZc2d0olCTR0vDGo-t3Atp7rwQXe256CqYgQVzdwoDnPyFmRyJZOiyLHhYQMxMpdOFSsuw=w408-h544-k-no,-6.9256727,107.630349
Imago Hills,kuliner,"Imago Hills adalah café di kawasan Dago Pakar, Bandung, yang menawarkan pemandangan kota Bandung dari ketinggian — terutama saat matahari terbenam dan malam hari ketika lampu kota berpendar indah.",4.5,50000,75000,https://lh3.googleusercontent.com/gps-cs-s/APNQkAECBzXPsu6AeTvQT_ZYhpzUr50XQxaQPgEWBs-BolhJOYOafS9oh6wbaKb5rgBly1O2vjq1VuCr0Y2jS2kZNuvkgvzdygA7j9KufLLO72pyYB1bOuvGULywUp6tmNjGgs5KPDGS=w408-h306-k-no,-6.8489494,107.647132
Wheels Coffee Roasters - Juanda (Dago),kuliner,"Wheels Coffee Roasters Dago (cabang ke-3) berlokasi di Jl. Ir. H. Juanda No. 256, menempati lahan hijau seluas 1 hektare dengan bangunan yang hanya mengisi 10% area, memeluk hutan di sekitarnya untuk menciptakan pengalaman makan di tengah alam.",4.8,50000,100000,https://lh3.googleusercontent.com/gps-cs-s/APNQkAG4VT4ZOikuQZFF7QruSVb-7OVxQa5dSyTPzbjHV0TBzIDSFNhRYERWvXXt5qcKJIJay_DmcHH0ZGEPsg5IbFT2VjPiQhgj--Sp6GuiQlZmMgt-SaA7dOsWv_cUFUFJFtwvDfwzXQ=w408-h612-k-no,-6.8815912,107.6159853
Skorz 23 Paskal,wisata,"SKORZ Sportainment hadir di Mall 23 Paskal lantai 3, Bandung, dengan luas lebih dari 1.000 m² yang memadukan olahraga dan hiburan dalam satu arena — dari Ninja Flame, trampolin, laser tag, hingga mini golf.",4.8,150000,175000,https://lh3.googleusercontent.com/gps-cs-s/APNQkAGIUd5mJF92O_pjx5v2S5TIxKtcXADT1UF0hPTXeReeSFlGdLaB0eSA4NFJhbWjaN7D5JfH_QDe5zyxugzdVmR9Be2wEnShF356j7mWvTUXIJnjnWNM5gsZd7Z9YYD4ddP1klW3ltEiaFV7=w408-h544-k-no,-6.9153751,107.5975304
Djaya Mandiri Sejahtera,kuliner,"Djaya Mandiri Sejahtera adalah kopitiam klasik bergaya Belanda di Jl. Nanas No. 27, Cihapit, Bandung, yang hadir sejak akhir November 2024 dengan suasana tempo dulu dan menu sarapan terjangkau. Keunikannya adalah konsep ""sarapan malam"" dengan menu berbeda yang buka dari pukul 16.00–21.00 WIB, termasuk andalan mie Bangladesh pedas-gurih.",4.1,25000,50000,https://lh3.googleusercontent.com/gps-cs-s/APNQkAE42Csxn-_R7FOOyzaen1SqSVBCYvUuUmO514LIsZcarOY0-Ff6Okj7N-QX4IqldkhAVqj3XLiHgJsbraTFr3xtOtqFbJmRnabiqMOB_mwrIL00lCjhZxLCcXlzOQXRbl_e7dSSQwFPgOuN=w408-h544-k-no,-6.912513,107.6314686
Warung Sunda Eka Sari,kuliner,"Ayam Goreng Eka Sari adalah warung tenda sederhana di pinggir Baltos, Bandung, yang terkenal dengan ayam goreng garing dan jukut goreng yang bisa ditambah sepuasnya.",3.5,25000,50000,https://lh3.googleusercontent.com/gps-cs-s/APNQkAF-fW0BioPl40gu88o2rICtML8ufxR42ti3IamZIqeqPiKgZCKdTh38TXPTj1IlyoMjYx_A3COrk5-S3VkY0079pIEWnJue2PvX2qbZGEwg-XF2qf-c1wGjK1gpo0b4rOQHF1o=w408-h544-k-no,-6.89919,107.6090046
Bebek Kalio Ananda Japati,kuliner,"Bebek Kalio Ananda adalah pelopor bebek dan ayam kalio di Bandung, dengan beberapa cabang di kota Bandung dan Cimahi. Bebeknya dikenal juicy, tidak bau amis dan tidak alot, disajikan dengan tiga jenis sambal pilihan termasuk bumbu khas seperti rendang.",4.7,25000,50000,https://lh3.googleusercontent.com/gps-cs-s/APNQkAEDyOM4k5QwiA2UPKDdZDR00iJiSPUXNQVN5x8KL6l7YhNVcuiqv9ZR-nrogm8le8XfgCos0Nz-GzlRts0-mtBagJv5bOpM-r2R5gArD8Dr5OllaHKeq9WEcuNUcdgdBcgxQD3g435wqVs=w408-h306-k-no,-6.8982344,107.6183447
Ayam Sari Rasa,kuliner,"Ayam Sari Rasa adalah destinasi kuliner yang populer di Bandung, menawarkan berbagai varian ayam goreng dan bakar dengan sambal pilihan — menu andalan utamanya adalah ayam goreng chili oil dan ayam bakar saus kacang.",4.0,25000,50000,https://lh3.googleusercontent.com/gps-cs-s/APNQkAE3ozW9v-AZ2rRX4vAqSUxiyUjSWSx6cDvxhJl8iWI-ZDNpreDTyrF-QCK7WLt4nAnyTIRNMbTtUORH0os0OYO8uE3bnVTDxGQizyuavYWsssE3jskMatg4AlVJ-xePkclYhCw=w408-h306-k-no,-6.9095141,107.6106328
Kisah Manis Huis,kuliner,"Kisah Manis adalah dessert café bertema nostalgic-vintage yang mengangkat manisan dan kudapan khas Indonesia ke dalam bentuk yang lebih modern, dengan beberapa cabang di Bandung yang masing-masing punya konsep interior berbeda.",4.7,25000,100000,https://lh3.googleusercontent.com/gps-cs-s/APNQkAEYPuv8i3JQRdeYDVP1MHfvXc0qxPhhutPn5pzZSy2MuK9VBrUIs-lo1AmRwu41zIODL67he4D1Nnmw9DcKuzCAGLhA4p9Bw2lPfDgFLKy8r_18NPf_pnsDZdD1198uIpzk4A21_tEz3tK2=w520-h240-k-no,-6.8701765,107.6071591
Drunk Baker - Bahureksa 24,kuliner,"Drunk Baker adalah artisan bakery dengan menu andalan Hokkaido creamy bread, dibuat oleh baker yang belajar langsung dari Jepang menggunakan bahan-bahan premium yang juga didatangkan dari sana, tanpa pemanis buatan atau pengawet.",4.8,25000,50000,https://lh3.googleusercontent.com/gps-cs-s/APNQkAHIXvZCQIEuARNFX9fDcWTWe4g8mM9prSAmIJEUOsxuuXobwNuV6RVpS4_wILo783bV3YLUQXAQa1tkcJnIo76e5EZrJSrQOBmIDkZ2G77WkKzlyUCLwgMW0TKISEtPPHU2PmNE57Qf-iII=w408-h526-k-no,-6.9055379,107.6153636
Rumah Makan Wangi Seruni,kuliner,"RM Wangi Seruni di Jl. Cimanuk No. 42 adalah restoran masakan nusantara yang didirikan oleh Chef Runy, terinspirasi dari resep masakan ibunya, memadukan cita rasa khas Sunda, Bali, Sulawesi, dan daerah lainnya dalam satu menu.",4.2,50000,75000,https://lh3.googleusercontent.com/gps-cs-s/APNQkAEyFiuBqSy_0mYfofdr4nDIONcG6t8hSNl6Z8v8oqm9HbKhqtAW5EJsZXNmq6lIa-6hYdMGjhjnYFQjkTl7roMLDYJVXZzw9SCzMJWIX2O1tu2hhiCHY3Wvx7E8hP7KSnOtecCSdLGEJqB3=w408-h306-k-no,-6.902466,107.6236504
Nam Sai,kuliner,"Nam Sai adalah restoran Thai halal di Ruko Setrasari Mall, Bandung, yang menawarkan pengalaman kuliner Thailand autentik — menu unggulannya antara lain Gai Yang dengan sticky rice, Chicken Tom Yum Noodle, dan dessert Tub Tim Grob.",4.4,25000,50000,https://lh3.googleusercontent.com/gps-cs-s/APNQkAHWlCohW4UU9Y0opMIIhj0vvGbMYGYn7R-vj0FbcwfWLeSaXE-I_en-kxczrK3lae007mS261OcoPCrDoYMehevXzJTbJqR5z-7aOLWZZ6DYix4blFMYDSql7eMsr6KIIXZhg5QWt7HY2Ur=w408-h306-k-no,-6.8812419,107.5821524
Kedai Roti Ibu Saya - Ummi Bakery by Helen Chu (CUMA LIMA RIBU),kuliner,"Kedai Roti Ibu Saya mengusung konsep ""kehangatan rumah nenek"" dengan nuansa klasik vintage, menyajikan roti bakar, pizza, burger, dan berbagai kudapan dengan harga yang sangat terjangkau, mulai dari Rp5.000.",3.5,5000,25000,https://lh3.googleusercontent.com/gps-cs-s/APNQkAH4u5P_laSsXwbXuGW_05WuiL4itMCVtxle-nl2QkIqvclON6ghMqOkOsZM9d2pyNyX8cryhjqAjR3gz9v7hYDveOn7jmBKMMSmKlqbOH2iLlKZa7qf_B_1aABb4VQbiv7kjLNcGw=w425-h240-k-no,-6.8977466,107.6099555
Paddy Bags Studio (Bandung),wisata,Studio tas DIY di Jl. Soka No.23A Bandung tempat pengunjung bisa membuat tas sendiri dari 5 model pilihan dengan warna dan akrilik custom.,5.0,50000,200000,https://lh3.googleusercontent.com/gps-cs-s/APNQkAFhszuRU9TYhGdH8wsklUL7pPMb_-KrraYuXqg0uRUS520uk320T0VQ88ycQNje0lXvagCopyLu7AtZGlZmQF_8Obs8Ih5bNcTRcEL4eQGNwyv2AvjlVnkMF62C7lcR3d81ojWUku6DRFE7=w408-h724-k-no,0.0,0.0
Paddy Perfume Lab,wisata,"Paddy Perfume Lab di Jl. LLRE Martadinata No. 139, Bandung adalah experience store dari brand lokal Paddy, di mana pengunjung bisa meracik parfum sendiri sesuai kepribadian, dipandu oleh perfume specialist dengan atmosfer lab yang colorful dan playful.",5.0,50000,200000,https://lh3.googleusercontent.com/gps-cs-s/APNQkAEFOVp5qvE7dtLHLaYbpSY3bf6Knw77oEwU8RmgNalqpizza7Nxv4Ugecc6AhZOBCxF3mGuoMKWrt_hfKjiB79i2OTjklfBMQKJa7vnFBLrkbKzy7F3ovB6sEgZlceyJlH7Kpdsf0xJMG8=w408-h544-k-no,-6.9086836,107.6247459
Paddy Playstore Backyard (Bandung),wisata,Brand lokal Bandung sejak 2017 yang menjual aneka aksesori custom lucu-lucu dengan interior warna-warni dan instagramable.,5.0,50000,200000,https://lh3.googleusercontent.com/gps-cs-s/APNQkAGnd_v2zbaZxaDYndU_PYMaasNX2xA5BkjY8qJTkeAJ9MDHfDZZ5C_gTBG9-A0bKTQlbxHAXPyNt27RS8TbhUQr3xj72Ephma2aJrbBeOtp_s4EXWTkw1NWNDbVDiKmkZQgaog9kg=w408-h544-k-no,-6.9153534,107.6260638
Grainsly - Progo Bandung,kuliner,Resto di Jalan Progo yang terkenal dengan slim toast dan tunacado — isian tuna mousse tebal dengan tekstur creamy dan crunchy.,4.7,50000,75000,https://lh3.googleusercontent.com/gps-cs-s/APNQkAGryMxW1BBsC5WnMUwFxC_9NqQ1XRBtBACZ65EURRfEA9qi87peURPUa95sg7LAi7O--ym4T331A__lHjXFQDTx5gzXqxKWG0YpWT4KhyOg09hdxfEo_e4ERZUZlYW87W9_bT9gbcAV9vw=w408-h544-k-no,-6.9049952,107.6193617
Rochi Bandung,kuliner,"Toko roti di Jl. LLRE Martadinata dengan konsep unik roti empuk berisi mochi kenyal, dikemas dalam wadah anyaman bambu yang estetik.",4.4,20000,50000,https://lh3.googleusercontent.com/gps-cs-s/APNQkAFXnOEXqRAgyJnW1uOW7qT2K7fN1na0W2aJLCWOLuBH5Ca0AGmlHqntVkTJrG2BwmwFXAFjymGtDbTwChG9AUdyv3eN8umQqvcVF1ahWEKxp8lomrJEiFFPYRdXEjRm0ruRW--nigtrlL6d=w408-h544-k-no,-6.905953,107.6162822
Kampung Kecil Bandung,kuliner,"Rumah makan lesehan masakan Nusantara di Jl. Perintis No.140 Sarijadi, Sukasari Bandung. Berkonsep suasana kampung tradisional dengan area lesehan bertema RT 01, RT 02, dan kolam ikan di tengahnya.",4.9,50000,75000,,0.0,0.0
Luca Pasta & Steak,kuliner,"Restoran Italia di Jl. Lombok dengan konsep elegan yang menawarkan pasta, steak, dan dessert premium dengan harga yang masih terjangkau",4.4,50000,75000,https://lh3.googleusercontent.com/gps-cs-s/APNQkAGjRSmgK5HniTsLG13Sm_4e2xDtRMXO4zMT3b6lIE2XnZkq2_h37MwS5_dAHRB0gcVw0tvjkFyw7TubPcSvwK42ub3QovW7_W3ZMrsrkT3W1fSa5ezus70mUFeuMW7RSLqfHK12Ssw2s5gu=w426-h240-k-no,-6.9114934,107.6187926
Steak Republik / Osenggol Osengan,kuliner,"Resto di Jl. Lengkong Kecil dengan konsep unik ""warteg western"" — steak berkualitas dalam suasana santai ala warteg, favorit anak muda dan mahasiswa.",4.4,50000,75000,https://lh3.googleusercontent.com/gps-cs-s/APNQkAFad-b9rUYoxS5JnTPqyRUdmVMDkCydZ0Vk9p5dVFGbzxdLstuTMNmm5sZi3qi4q4Eh8gDmLswa--WyOsUvgDuPcciOwFNUu5eqEDG1mm9dX9_lbLRAtsPJacxfzq1TftS37m9T=w408-h544-k-no,-6.9230683,107.6134632
Homeground Restaurant,kuliner,"Cafe & resto bergaya minimalis modern di Jl. Gn. Batu, Ciumbuleuit, bagian dari penginapan Bungalow, dikelilingi pepohonan hijau dan area kaca yang estetik.",4.2,50000,100000,https://lh3.googleusercontent.com/gps-cs-s/APNQkAHoAVIlxrJZ915fIs5LE3oRdmJ_m0b6M5GdIYPRzR8NgbJPjXT3DHT4yz2BaEUPwSwf_nAZFUa6EGKofETxlEEg_UHV9TdpYZIOfe5w2sV9h-wNqz2o2UkVwQu08xGCcYwNtn8JbA=w408-h544-k-no,-6.8698075,107.607285
WŌRK-UNUSUAL,kuliner,"Coffee shop ala Japanese di Jl. Buah Batu dengan desain modern hangat, tersedia indoor, semi-outdoor, dan meeting room — cocok untuk nongkrong maupun WFC.",4.7,25000,50000,https://lh3.googleusercontent.com/gps-cs-s/APNQkAFhUFY4OsG4rp7nXi8486V6qgvAxmWbO6xk2gh85v29629B0SVGoSyFo3lBkzfvzm3wWTwytVhXY3eRBQzBDlsEFLhIE0yUYYuLCl0ZB0O9Aip4qFsdAa7UBf6MaRxpwMI1ckXt_w=w408-h544-k-no,-6.9344369,107.6199715
Dough Deli,kuliner,"Toko donat artisanal di Jl. Cendana yang berfokus pada kreasi donat unik seperti Biscoff Cheesecake dan Butterscotch Popcorn, dibuat dengan penuh perhatian.",4.7,25000,75000,https://lh3.googleusercontent.com/gps-cs-s/APNQkAEu7c8ojz5J4bsJ3keFdLZLb9yloeEBUNY2sBqBa09u2-ReKNlelHQn1qI_TCVYkqqDBfD9z7k7xz4DSeK9Lp_knPM6FPP7kXmgYLPO7lt0tQYeGnZEGTzqr-ypAJS3byi2x3jW=w408-h544-k-no,-6.9089961,107.6279019
Rumah Lezat Simplisio,kuliner,"Restoran di Jl. Karapitan yang menyajikan menu dari berbagai negara — Jepang, Korea, Italia, Vietnam, hingga Indonesia — dengan harga bersahabat.",4.5,25000,50000,https://lh3.googleusercontent.com/gps-cs-s/APNQkAEUQfTyE7a4K9nYAd1BkRAht0lZk5TMGKpkBMZpwfsqqBjURbiL6d4r8Scbtdkvxsn8Yc5i-eKl_qQDPD75D68m4pdYc7E4pivtJAfjgRvjGk3HbryB_2NZsr2LTAUURsdaCKdbqfltBDyo=w408-h306-k-no,-6.9261399,107.6173089
FORK,kuliner,"Cafe industrial-chic di kawasan Braga yang buka 24 jam, dengan andalan Smoke Set Menu — brisket smokey lembut, mac & cheese, dan salad segar mulai Rp50.000-an.",4.6,50000,150000,https://lh3.googleusercontent.com/gps-cs-s/APNQkAETsYUqHUPl_cx2tDnXz90d4U2t4W19s6u-iM1AZdOnsC-LgnXdpAQGoDupVF-wGy3h87w8kKfOeZNwnJTNIJrK6wCdMeQpDiiWlDZEA84mcTn8GGqdissV6mJe-Ym946HXsNGFJO3qwfH8=w408-h544-k-no,-6.9164042,107.6094078
Wot Batu,wisata,"Galeri seni terbuka di Jl. Bukit Pakar Timur, mahakarya seniman Sunaryo yang memajang 11 instalasi batu vulkanik yang tersusun harmoni menyatu dengan alam.",4.7,25000,50000,https://lh3.googleusercontent.com/gps-cs-s/APNQkAEjDsMTpSqw0zcXtNR-sD423pr6X3vDd3UJ_Ep33_xAM29A23hyCtQjsQvYV_WSC1orG2NHopDKEoxxDHSLv7A6aZZTbO3B4dfCmTOsOPHZw_bgGL4j9Z3hz3PXeEVaBnLlQ34x=w426-h240-k-no,-6.8596548,107.6361348
Selasar Sunaryo Art Space,wisata,"Galeri seni nonprofit yang berdiri sejak 1998 di Jl. Bukit Pakar Timur, didirikan Sunaryo untuk mempertemukan karya seni kontemporer dengan audiensnya.",4.6,35000,50000,https://lh3.googleusercontent.com/gps-cs-s/APNQkAGHkT7owym74RkVbpwMhGtcBZVxGh4Rw50UYX2Z--C6RC4jLVzEk-EEfCM3fKI9fecVxVUN1TcjFucXJdGhqdvvLbGNj_b0ToG0XHpkEc_RwEbm0ZDIMpebVMJ81OD_QWRpTHe0=w408-h306-k-no,-6.8585479,107.6364596
Opera Courtyard Bandung,kuliner,"Café di Jl. Bukit Pakar Utara, karya desainer Dendy Darman, yang memadukan nuansa alam sejuk dengan arsitektur instagramable dan taman yang luas.",4.5,50000,100000,https://lh3.googleusercontent.com/gps-cs-s/APNQkAHVX5lcQ4_0kcx4AK2XBgbBuA7oSL2amFwxeZlrUTIqcJbIaDBg0cVNwqLQ3UDBcJ_V04aZDKuGMbtX1pbP14-dnHJ7WcyMSuz4ZvhT8ZKPqDb7pQEwdVrvVs3CjCa6HQJkgCt79Q=w408-h544-k-no,-6.8571846,107.6350965
Cafe D'Pakar,kuliner,Kafe di kawasan Dago Atas yang menawarkan suasana tenang di antara pepohonan pinus dengan pemandangan Kota Bandung dari dataran tinggi.,4.5,25000,50000,https://lh3.googleusercontent.com/gps-cs-s/APNQkAHNbcEpcgXjDWYB-eJnqziZ3isO54Ul3YbJPs7KrBLSF1NMu4IpmyINU3KmurkZGYZS6SlOxOyLcUDtpPuR9Qz9psvo8lHyoZJ6XKhYHEIvSELwRtNLJsoicVwh1nA9aOXH16kLGqp5q-Qz=w408-h306-k-no,-6.8467166,107.6497171
Imah Seniman,wisata,"Kawasan wisata seluas 15 hektar di Lembang yang menawarkan berbagai konsep dalam satu tempat: makan di hutan, menginap di danau, memancing, dan outbound.",4.4,550000,1000000,https://lh3.googleusercontent.com/gps-cs-s/APNQkAEcBPjtceEwjGhHPo8kBSWpBhNzmbjfu1oZXHDUjKHNrbsxyrFROOOy2K3Gkdsphv5-fUPONFCMQoUd-SvBH_Y24mRtsmexqWxAdus5oWxb_LOuPeiisK5ti5S_quuBShxIteTe9SDUa1Y0=w408-h272-k-no,-6.8218893,107.6063488
Gia's Grange,kuliner,"Café di Jl. Raya Tangkuban Parahu, Lembang, dengan desain barn rustic bergaya Khao Yai di tengah kebun bunga warna-warni, ramah hewan piaraan",4.4,25000,50000,https://lh3.googleusercontent.com/gps-cs-s/APNQkAFPIGkpDD_x6QC2Hxsax6MaQ-6hC4yMltiRmPtM2a9boBEV6GVVQkW1Wz9-Gtsab1X05kIoBQz1NIwPhmTuKCoYkP7zChl9g8dY5wx6bMJSgnc8Ii9-aK1FUYFD2xf-lIZlZhxLnnpG0Co=w425-h240-k-no,-6.8092206,107.6275585
TONES NO.6,kuliner,Café di Jl. Terusan Cisokan yang dikenal dengan perpaduan kopi berkualitas dan musik vinil klasik yang menciptakan atmosfer hangat dan penuh nostalgia.,4.6,25000,50000,https://lh3.googleusercontent.com/gps-cs-s/APNQkAE1GkMiQ6dOhguCJAlVK6MefGN890_kVDabQDNFS2gQo4tgXRfxVOi2pj3tgC4hLsp6lpwfbYtbVibQkbFJzWU_VpCRWabl0cBh07Rn_nTwqdGfJyXenzUY9t1MywBUfiuIfBhnZw=w408-h306-k-no,-6.9022085,107.6324978
Skyward Project Bandung,wisata,"Taman hiburan tematik steampunk di rooftop 23 Paskal Shopping Center dengan wahana Flying Fox, seluncuran tematik, dan playground edukatif untuk keluarga.",4.6,50000,150000,https://lh3.googleusercontent.com/gps-cs-s/APNQkAF6BQDrAPmdotiftFDtsHsZHpxFzSfanj-kdGrhYlNcmySs858jGnttuOpeYZ1B2uPxMqTjGULLq1t9BfhH8v6F-USkUhjow--dtGy50LlKjCPo9EMnjIbLTpJRe3sWgnvTRwTCcvcjXCU=w408-h271-k-no,-6.9154716,107.5946028
NuArt Sculpture Park,wisata,"Galeri seni seluas 4 hektar di Ciwaruga, didirikan pematung I Nyoman Nuarta, yang memadukan ratusan karya seni patung dengan suasana alam yang rimbun dan tenang.",4.9,50000,100000,https://lh3.googleusercontent.com/gps-cs-s/APNQkAH-DE6JzOeus4ADQ6e31EpSulw16cegt-ySmgqZWa-0iPVViW0G7sk27MgdTuWAAHYbsP-aG44DWcwmELJIk6tB8-aDRly4cRZr_5h04t2Ckro45bn7JnMMoL9oSNz1_iDdpJ8ocQ=w408-h306-k-no,-6.8779724,107.5718915
Mercusuar Cafe & Resto,kuliner,"Cafe & resto bergaya kastil Eropa abad pertengahan di kawasan Cimenyan, dengan rooftop berbentuk istana gothic dan pemandangan Kota Bandung dari ketinggian.",4.5,25000,125000,https://lh3.googleusercontent.com/gps-cs-s/APNQkAFjP4jkC4v7aqxlrMB3YZl1OjkbwPQivrwSkQOIcpIonaXfXjjIyOpVTpwRLiu6ixVg63b_2oo4tuzpTdnBUJnk4j_GZrIQTjyN0PljZWSQewkOxfUs9vb5cWshC78voWKCT84i=w408-h544-k-no,-6.864996,107.6311512
Nempoe Cafe Views Bandung 180°,kuliner,"Café & Resto viral di Cimenyan yang menawarkan pemandangan luas Kota Bandung dan Gunung Manglayang dari ketinggian, dengan dekorasi unik seperti mobil klasik dan motor Harley Davidson.",4.7,25000,50000,https://lh3.googleusercontent.com/gps-cs-s/APNQkAH_NnHsuXgSHrvS447-AFMRSEWhz6asqQuK2CUVBOleifFFUto5MvigX2XoRJv4EsQOHX85FLoAdYpRO9YL8NjyZhrgzUJtXVv6FamqouapEv57LJ2nyyjs_R9VqJNGHtsnQTp-aeLgdTPI=w426-h240-k-no,-6.8691982,107.6802047
The Lodge Maribaya,wisata,"Destinasi wisata alam di Lembang sejak 2005 dengan tagline #escapetonature, menawarkan wahana seru seperti Sky Tree, Hot Air Balloon, dan glamping di tengah hutan pinus.",4.3,50000,200000,https://lh3.googleusercontent.com/gps-cs-s/APNQkAF4n3puhFz81c-1123QKbJYfPYm3Y_rd_VR1GzgGm5wkpx95ntK97V10tovfmjZ3_htCuQVJm-UoH1ZsyUEAOcC7TJb5x4jMvTCzfcW8m9oe4bzq56kApahJNcHwO0ykOYNL11tkA=w408-h272-k-no,-6.8293551,107.6874279
Dusun Bambu,wisata,"Wisata alam eco-friendly di Lembang dengan arsitektur bambu khas, restoran berbentuk sarang burung di atas air, danau, sawah, dan berbagai wahana untuk semua usia.",4.5,40000,200000,https://lh3.googleusercontent.com/gps-cs-s/APNQkAFlynj1leTmnlDfiQ7hkX9yZqWv49C1BWE4_q0rDY_YskQpGhQohzy1EupOyXGHGnbw-ul1HQNTEsa4D6eWQW1DfGKFOMcNh9jYCqElFFVbKmMJFbvL6HWB0xR0Co2KahFGj74S=w426-h240-k-no,-6.7895621,107.5768283
Game On Arcade,wisata,"Arena permainan arcade futuristik pertama di Bandung, di Jl. Karang Layung, dengan 9 jenis game fisik interaktif berbasis LED untuk 1-6 orang per sesi.",4.5,85000,100000,https://lh3.googleusercontent.com/gps-cs-s/APNQkAEG-z4w-o0DcCL3YgR1jRvk7nBP9eNd7UPJoGHW7iE5HqzQPY0oGAISR5FjwHV4o1ZoIVUitmOkuGC_EtNJlbBQSDwLKi9DFk5p1UYqNo0_s7DCjMsLdYbv_DehMEfcm3iG3lrSRMJiq_hg=w408-h544-k-no,-6.8811542,107.594382
Paris Van Java,wisata,"Mall sekaligus destinasi wisata ikonik di Jl. Sukajadi No.131-139 Bandung yang resmi dibuka Juli 2006. Mengusung konsep open-air bergaya Eropa dengan berbagai tenant fashion, kuliner, hiburan seperti ice skating, PVJ Carnival, Sky Garden, dan air terjun buatan Curug Langit di rooftop.",4.6,0,100000,https://lh3.googleusercontent.com/gps-cs-s/APNQkAFJ77j0eUYrc-EZIwy-5T_0ZQIhqBCwHym0jXigojcsacNvR4aOJIpowarKnuxG0FZRKUH-j6tNx4pCvAG7_7n8TwkOcjaJ6ZhBPgvcs3IVLYsqdsMLF36xWcZyd5rGi2jKfExoN9-FPd5-=w408-h541-k-no,-6.8895641,107.5960068
Lighting Art Braga,wisata,Destinasi wisata seni cahaya yang resmi dibuka 11 Desember 2025 di Jl. Braga No.103 Bandung. Menghadirkan lebih dari 24 spot foto instalasi cahaya artistik yang menawan di kawasan heritage Braga.,5.0,40000,100000,https://lh3.googleusercontent.com/gps-cs-s/APNQkAGUChcd8EonlztVb-IfRato-DxQ-bzdUZDUVDp1QzHC3eRF-QBC-N-KZu91VZWDKUFf66uKwEC3pAROc_JS-SikLjhDIWZNot4Tzf71HZs2PaGkUIqA3BxPbN2c--S4qVnOM32Ad0J6XxcW=w408-h401-k-no,-6.9169318,107.6091155
Room 23 Merch Store,wisata,"Toko merchandise K-Pop di Jl. Anggrek No.34 Sumur Bandung yang menjual berbagai fanmade merchandise, aksesori lucu, dan menyediakan photobox SnapLab.",4.6,50000,150000,https://lh3.googleusercontent.com/gps-cs-s/APNQkAE6kgNWusvN20OwVFULKOT22JcujMHQ4OGjbMKmnSkMm3JO4IvS2dHWTDrGSrD-EtBksJ4XcsSsg_XB50TJqyRI-wLQ5nkPcfKtEFxumvbooS7CezmiXKTb63v8tmwVuV3AMFJf=w408-h544-k-no,-6.9132685,107.6281793
Grey Art Gallery,wisata,"Galeri seni di Jl. Braga No.47 Bandung yang bertujuan mengenalkan dan mendukung karya seniman lokal. Berlokasi di bangunan bersejarah N.V Hallerman tahun 1930, dilengkapi kafe, toko souvenir, dan ruang pamer berlantai tiga.",4.7,25000,35000,https://lh3.googleusercontent.com/gps-cs-s/APNQkAGU1POkXu1f3zT0sl3lHcuJTSAjwf2EfIau3S6l7FZmTEMAvrNukQ64spsjRnRQ12kpL8lHjt8LSWTBhsL8uqxdShMQABMdkdLlxe8dNOsLgpuq3qmkRWHi2InPg4zaSKn_xB2u=w408-h306-k-no,-6.9186002,107.6094795
Kawah Rengganis,wisata,Kawah vulkanik aktif di kawasan Ciwidey Bandung Selatan yang dikelilingi perkebunan teh Rengganis. Keunikan utamanya adalah Jembatan Gantung Rengganis sepanjang 370 meter — jembatan gantung terpanjang di Asia Tenggara — yang terbentang di atas jurang dan perkebunan teh.,4.4,15000,50000,https://lh3.googleusercontent.com/gps-cs-s/APNQkAGpj02X-BD6M8lgWTBkUBbbPgdjJ8ARumKyrKCsyVJ7jSYt63L-9a_4dgZ_Oa7fjny2S5_BhvN1J4PFPc519YfX57q_Zj5qXH6D70KA99FYjSxFADs3cCEvmK1gRl74H0Jh5-ouLA=w426-h240-k-no,-7.1724375,107.38
Toko Bubur Dibawah Pohon Rindang Cibeunying,kuliner,"Tempat sarapan khas di  Bandung dengan konsep open kitchen dan area duduk di bawah pohon besar yang rindang. Menyajikan bubur ala Kanton dengan berbagai topping seperti ayam gunting, saikoro beef, dan camilan seperti dimsum dan lumpia kulit tahu.",4.6,25000,50000,https://lh3.googleusercontent.com/gps-cs-s/APNQkAEc42M7ZJuiQRquTi8M45qpkdihfa8rwXYXxePSIgPfnvZCFdjG65LR5VCL2MFxj8-XVENgkcCMESVEXK22mXyaYPodbZu7FbpWvuZRBXl6iedxD7O8lfIID2SIqc-KG6WxvNn1GAtzpVP7=w426-h240-k-no,-6.9042836,107.6245235
Noah's Park | Wisata Lembang Bandung,wisata,"Tempat rekreasi di Jl. Sukanagara No.20 Lembang dengan berbagai wahana menantang seperti ATV, go kart, luge kart, flying fox, trampoline, bumper ball, dan bull ride. Tiket masuk gratis, hanya membayar per wahana yang ingin dicoba.",4.6,20000,250000,https://lh3.googleusercontent.com/gps-cs-s/APNQkAGL2lXGQXe53JqBi0vuCx1aLO3F-TZxOt-z69caldO354hfU9FDjqJ2VzherxDWZML_CuuR10FwGtWRucSt6Tqsly5uB9I2a9FWbZx2PxSCLxbU3A1NQrhx6LexAYFD4P1sMKry=w408-h544-k-no,-6.8302191,107.6341164
Hidden Farm Plantshop Cafe,kuliner,"Kafe hidden gem di kawasan Dago Bandung dengan konsep alam alami, suasana tenang, perpustakaan, dan kucing-kucing jinak yang bebas berkeliaran.",4.7,25000,50000,https://lh3.googleusercontent.com/gps-cs-s/APNQkAH6EO_kPwTt5KVbUYttIw9lCRWOS97IVzWuMRDkCKW1fsROhOcPClnr_DLDPVafqqZnWWswOWg4K1f18dP7KcGxZTczpqJOUc8q6aVGTMEupkF9mM2Lj7e6DkCLdr3NzQ3grYkCjHDXA60=w408-h306-k-no,-6.8578424,107.6370984
Hutan Mycelia Wahana Edukasi & Interaktif,wisata,"Destinasi wisata malam di kawasan Terminal Wisata Grafika Cikole, Lembang yang menggabungkan keindahan hutan pinus dengan instalasi cahaya warna-warni dan elemen audio visual yang memukau.",4.6,50000,150000,https://lh3.googleusercontent.com/gps-cs-s/APNQkAH73uUrnH1j711Dok_sPhl_Oa3bQ8tTS-dv8BmcgA5Bge5SFrwTJdo-1QINX7H2yy_ScwdyXEqxoHavWDn3JpAVnL5ObVnfSks9D6bscW36Gxr6lRmHQdUEPgu2-ak4o2YCXoI0PuM7p2Ht=w408-h544-k-no,-6.7854682,107.6516053
Bakso Bintang Asia,kuliner,Restoran bakso di Jl. Sabang No.63 Cihapit Bandung yang viral karena cara penyajiannya menggunakan kuah khas Pho Vietnam.,4.4,50000,75000,https://lh3.googleusercontent.com/gps-cs-s/APNQkAEumRZRJ7kjx9Uwt9DIluPgNYZqPFgaOJSViNLikcaCZETRSFmSeM7qvdqOZ_suHBDcTOYWNCLI9h5YIT4IAH6dhlSWzbia68yHMns6tpV4MTjC7A5ToCx9NgQUTAJrlJQnEei_ZhdlWaE=w408-h306-k-no,-6.9078334,107.6226518
Humblezing,wisata,Tempat pembelian baju tema kalcer yang ada di tengah kota Bandung.,4.8,50000,150000,https://lh3.googleusercontent.com/gps-cs-s/APNQkAH7W0x1D8igOPLREbum2md8T-xvoTAz_YGFzRiTdofCGjXeBWhvegqpn3vCUOKfFETJyLagg6EsJ7niz22D7ycXiDt93DQtvSBq4M3wp6PAxkurihurN6Is2hwpcOIf3CHrp4CAZ8SEuEJV=w408-h544-k-no,-6.9086513,107.6219694
BMB Burger,kuliner,"Kedai burger dari manajemen BBQ Mountain Boys dengan menu burger premium bercita rasa tinggi, menjadi salah satu burger favorit di Bandung.",4.6,75000,100000,https://lh3.googleusercontent.com/gps-cs-s/APNQkAGr2VXj-NiKpxFKagg-wum4-PB-7EiJj5K43XBYg7MWe8a1oloQVPhTMWOrrC-Y8uBjVAtw7uAVU48u18Lp4kMCIQhnj9wkPUUrRoKJsm22PFiL-pJrthjjglnUoWOlWLPVuXJDAYjQK8Pq=w408-h543-k-no,-6.9144264,107.5929779
MIZU SIGNATURE FAMILY MASSAGE & REFLEXOLOGY,wisata,"Tempat massage di Bandung, cocok untuk rilekskan badan dengan nuansa hangat dan nyaman.",4.8,100000,500000,https://lh3.googleusercontent.com/gps-cs-s/APNQkAGXKTIlWAzhaQqA4HH9ui32DBxGYDRGfhkOZ3zSqM19BmpswlX3UZkoY2Y5eYXt6aUqduv1ObYhfHxWU1IqthGFqj3PPmac_tkqDGMqEkPyTBz2-EI3lb2FWnFbEUuIjU5OSPmAdoeUGW5G=w408-h544-k-no,-6.9123245,107.6279744
Alun-alun Kota Bandung,wisata,Taman kota bersejarah di jantung Kota Bandung yang telah ada sejak tahun 1980-an.,4.6,0,0,https://lh3.googleusercontent.com/gps-cs-s/APNQkAFNd1QYkIncz_crnpu00BwAjtSznnjwVP_InZx2Es3H0TkScu051sd3RoIHBHH-pNEDZVXxFqT4JRm8YFowFkIs49In10mzz0f1H34xE8dU9qpG1itbPYiAb_EOIFnbqIEXuGR1Yw=w408-h306-k-no,-6.9218295,107.6070623
Warung Nasi Ibu Imas,kuliner,"Warung nasi Sunda legendaris di sekitar Alun-Alun Bandung yang sudah berdiri sejak tahun 1980-an, menyajikan masakan Sunda otentik yang menggugah selera.",4.2,25000,50000,https://lh3.googleusercontent.com/gps-cs-s/APNQkAGcSvdPHnbxIGkoTW9e7tS8hrDOU1PU6IuEFhKJvSuzZ-cq8lSvHG4BO4wPoYOminH7Zg4_9olTFnB4dc1NDgoD98ls9cmBa8AsfcNOkXBgvZZ0mH0JVqNUn0Yk_Ys8X7VWI5UcSe8cSx8=w426-h240-k-no,-6.9273245,107.6070919
Museum Pos Indonesia,wisata,"Museum di Jl. Cilaki No.73 Bandung yang menyimpan 131 juta keping perangko dari seluruh Indonesia dan dunia, serta koleksi 200 peralatan menyurat seperti alat cetak perangko, kotak surat, dan timbangan paket.",4.6,0,0,https://lh3.googleusercontent.com/gps-cs-s/APNQkAGHSe8435XeP1h5S5Pb7q31BBp1LX11oCaOQMd5LcUXluei6QeUW4C_yPEP_LfNzVlW-ViCSU8Fyk9x-2sKf0QFui7df4966js_d8SpTn6C0ppUFxjTgKj0l2r2MN3bZLu7ppLirQ=w408-h306-k-no,-6.9020615,107.6197439
Museum Kota Bandung,wisata,"Museum yang fokus pada sejarah berdirinya Kota dan Kabupaten Bandung serta perkembangan seni, budaya, dan teknologi. Menampilkan gambar tokoh penting dan sejarah Kota Bandung dalam bangunan tua yang berkarakter.",4.5,0,20000,https://lh3.googleusercontent.com/gps-cs-s/APNQkAEJRXhzr2BsGRuDRzTei4q_XavMTRSRwUHeSat9TiW0WFGZn1iAjZZz9KUtFjgXi8CJWuwJqhFKfBsbfDiwSdm5ZVGozLhFlN_Q9s0qVmb9Fc_ivYN_qAJng76ExK0uk_sO4u0d5A=w408-h306-k-no,-6.9099511,107.6095208
Museum Gedung Sate,wisata,"Museum interaktif di dalam kompleks Gedung Sate, Jl. Diponegoro No.22 Bandung dengan konsep Smart Museum sejak 2017. Menggunakan teknologi layar grafis interaktif, Augmented Reality, dan interactive floor warna-warni untuk menyampaikan sejarah Gedung Sate.",4.7,0,5000,https://lh3.googleusercontent.com/gps-cs-s/APNQkAFoYCQmPnuItC8oSh09m8IO6IchatBJPL-LHsj8fNOMWgMPY4W1AG75zYyCe6GqcQoiEIdPQxbSk8X7bzv13xk86nQ0bl_QR_7IZx-LOx6uQCuAmv7C-yqHZy6uTVU3Nw1VAZNIXu13EH3t=w408-h306-k-no,-6.9025224,107.6191303
Museum Srihadi Soedarsono,wisata,"Museum seni yang mendedikasikan koleksinya pada karya pelukis maestro Indonesia Srihadi Soedarsono, menampilkan berbagai lukisan bersejarah dan bernilai tinggi.",4.7,10000,30000,https://lh3.googleusercontent.com/gps-cs-s/APNQkAExMqmG1XuBFeEkgBqDlQjojcCnZsGzbZP0UOBOxtIYd_7nizXIFbF_1pBeHCZ_Spdx2yJjDZTPV_WYyEDS0dNND8wowadGQh5AzzcTJ_iORgjhTQRsjp7Hv6c1VCOjvfD6zLci4Zwq1hGt=w408-h905-k-no,-6.871657,107.60524
Curug Bubrug,wisata,"Air terjun tersembunyi setinggi 50 meter di Desa Kertawangi, Cisarua, Kabupaten Bandung Barat, dikenal karena aliran air jernih yang jatuh ke kolam alami.",4.6,10000,50000,https://lh3.googleusercontent.com/gps-cs-s/APNQkAHVie1kDuV1DMWQCfSFhhtxhxH_Ov7R8vTVH6zURfUAs0u182PG1kkGFDnqq1c-9RKo662koyTwtiWZYFzVCbdDYZJIQCKEldUCKqrmfmqf2Fv9DMs0ydKVKBTHaki0pHi2R0dqgqgszwRc=w408-h306-k-no,-6.7921116,107.5800837
Curug Layung,wisata,"Air terjun tiga tingkat di ketinggian 1.400 mdpl di Desa Kertawangi, Cisarua, Kabupaten Bandung Barat, dikelilingi hutan pinus dengan pemandangan Gunung Tangkuban Perahu.",4.6,10000,50000,https://lh3.googleusercontent.com/gps-cs-s/APNQkAGSPZp7MO-xmqNTWADlPBUDiIcpnwytzYjyQ9arf36Nysjw8_E4MueLYaFyVFg7cEcWn6TTWSbHiC__GVDZEoK-Fe29Ii7UA_2uudnFSIphivoZtVIn-HVFFb8WpNuqy6zdXPZtnw=w408-h306-k-no,-6.7987214,107.5757824
Salt Saltbread,kuliner,"Toko salt bread pertama di Bandung di Jl. LLRE Martadinata No.118 dengan konsep baking fresh setiap hari. Menyajikan salt bread renyah di luar dan lembut di dalam dengan pilihan topping beragam, juga ada toast, rice bowl, dan matcha.",4.0,25000,50000,https://lh3.googleusercontent.com/gps-cs-s/APNQkAFthxC35NLYQxPb3XoYIiXPOQOyHCUK0L-QH3VdJxquqNc0eqbyLEq3I_JRbcj4gCjEigZ-9ZntBn0hranvhYJIMx0GB27ktqI1nU-F3MCmIFV5kUuYAkTlfjLFow4g2YH-0Ftpi6MABqTe=w408-h544-k-no,-6.9107221,107.6261331
Dimsum Sembilan Ayam,kuliner,Restoran dimsum halal bergaya Hong Kong di Jl. Pasir Kaliki No.170 Bandung dengan konsep open kitchen.,4.5,25000,75000,https://lh3.googleusercontent.com/gps-cs-s/APNQkAGxKtBkQUFN682y6k3mVrbtmFhJydaZH7RlsSNAjRZzyE__RZD10NHw4IVyzU_EBjK8Wfw66_IAER3pHkMPCerpiYkK5laB1-QXSxbgZ3tzJtJxY8dheXG1f6EHLMesXL2Ax2eXzA=w408-h432-k-no,-6.9020548,107.5977174
Bandros Braga,wisata,"Wisata naik Bandros (Bandung Tour On Bus) di kawasan Braga, bus wisata ikonik Kota Bandung yang mengajak wisatawan berkeliling melihat berbagai landmark bersejarah kota Bandung.",4.5,0,20000,https://lh3.googleusercontent.com/gps-cs-s/APNQkAHh8fqVaAC_Soh7VfLy-w3C0MU8BLaykbUEJKwwNEY1Pw57lf2kLlhbCRDeDQMOSI4IUmVDAbgpzWQc6PIMJ9MgTP5s2shD3jkn679glpjRqxYJD9vXk3ojC6MP2EeKRuLFIYn5oQWI4sua=w408-h544-k-no,-6.9224266,107.6068136
Sesar Lembang Kalcer - Titik Kumpul Backyard,wisata,"Kafe dengan konsep backyard yang nyaman di Bandung, menyajikan menu kopi dan makanan dalam suasana outdoor yang asri dan cocok untuk bersantai.",4.4,10000,45000,https://lh3.googleusercontent.com/gps-cs-s/APNQkAHsEghFLNKXDDMCVUjBydvQYXwJV9FNF4f0mPy7BVQ_Ws_rOpKSB98PeguuGxFQ4qryP2IilClH4DjU50EZsNcnk92_jlCoxsz0DPicWN5QilnDCz18YJB3B6eH-nBjHGdsj_vgyIbBcZyh=w408-h544-k-no,-6.8724256,107.6233326
